street1,street2,city,date,desc,bus_year,bus_manufacturer,claim_id,lat,long,formatted_address
22Nd St Station Loop,Ladner St,New Westminster,03/01/2011,Collisions With Other Vehicles,Nan,Nan,170719,49.1999652,-122.949048,"22nd Street, 649 22nd St, New Westminster, BC V3M, Canada"
Nanton,Granville,Vancouver,03/01/2011,Collisions With Objects,Nan,Nan,170722,49.2474197,-123.1391558,"Granville St & Nanton Ave, Vancouver, BC V6H 2E1, Canada"
Nan,Btc Yard,Burnaby,03/01/2011,Collisions With Other Vehicles,Nan,Nan,170727,49.2488091,-122.9805104,"Burnaby, BC, Canada"
203 St,58 Ave,Langley,03/01/2011,Collisions With Other Vehicles,Nan,Nan,171067,49.120631,-122.6601665,"203 St, Langley Twp, BC, Canada"
Richards,Cordova,Vancouver,03/01/2011,Collisions With Objects,Nan,Nan,170761,49.2846865,-123.1108963,"Richards St & W Cordova St, Vancouver, BC V6B 4Y2, Canada"
Ubc Loop,Ubc Loop,Vancouver,04/01/2011,Collisions With Other Vehicles,Nan,Nan,169405,49.2675511,-123.2481004,"UBC Exchange, Greater Vancouver A, University Endowment Lands, BC V6T 2B9, Canada"
Boundary,Hastings,Burnaby,04/01/2011,Collisions With Other Vehicles,Nan,Nan,123358,49.281143799999995,-123.0236986,"Hastings St & Boundary Rd, Vancouver, BC V5K 2B1, Canada"
Lansdowne,3 Rd,Richmond,04/01/2011,Collisions With Other Vehicles,Nan,Nan,169664,49.173912200000004,-123.1368381,"Lansdowne Rd & Number 3 Rd, Richmond, BC V6X 2C7, Canada"
Nelson,Granville,Vancouver,04/01/2011,Collisions With Other Vehicles,Nan,Nan,170739,49.279274799999996,-123.12302,"Granville St & Nelson St, Vancouver, BC V6Z 2A8, Canada"
1 Ave,Commercial,Vancouver,05/01/2011,Collisions With Other Vehicles,Nan,Nan,123258,49.2696553,-123.0696629,"Commercial Dr & E 1st Ave, Vancouver, BC V5L 3Y4, Canada"
Gilley,Kingsway,Burnaby,05/01/2011,Collisions With Other Vehicles,Nan,Nan,170983,49.2199245,-122.97200759999998,"Gilley Ave & Kingsway, Burnaby, BC V5E 1C9, Canada"
Park Royal,Marine,West Vancouver,05/01/2011,Collisions With Objects,Nan,Nan,171119,49.3269555,-123.1378993,"Park Royal S & Marine Dr, West Vancouver, BC V7T 2W4, Canada"
Granville,Pender,Vancouver,05/01/2011,Collisions With Other Vehicles,Nan,Nan,170762,49.2846675,-123.114861,"Granville St & W Pender St, Vancouver, BC V6C 1X6, Canada"
59 Ave,Oak,Vancouver,06/01/2011,Collisions With Objects,Nan,Nan,170866,49.217110999999996,-123.12929299999999,"W 59th Ave & Oak St, Vancouver, BC V6P, Canada"
Yukon,Sw Marine,Vancouver,07/01/2011,Collisions With Other Vehicles,Nan,Nan,170888,49.210961,-123.1153397,"SW Marine Dr & Yukon St, Vancouver, BC V5X 2R9, Canada"
Ubc Loop,Ubc Loop,Vancouver,07/01/2011,Collisions With Objects,Nan,Nan,169376,49.2675511,-123.2481004,"UBC Exchange, Greater Vancouver A, University Endowment Lands, BC V6T 2B9, Canada"
20 St,7 Ave,New Westminster,08/01/2011,Collisions With Other Vehicles,Nan,Nan,170884,49.2015763,-122.94675459999999,"20th St & 7th Ave, New Westminster, BC V3M 4W4, Canada"
Cambie,Broadway,Vancouver,10/01/2011,Collisions With Other Vehicles,Nan,Nan,171003,49.263279299999994,-123.1149908,"Cambie St & W Broadway, Vancouver, BC V5Z 4M5, Canada"
Granville,Pender,Vancouver,10/01/2011,Collisions With Objects,Nan,Nan,171121,49.2846675,-123.114861,"Granville St & W Pender St, Vancouver, BC V6C 1X6, Canada"
Fir St,E 2Nd Ave,Vancouver,10/01/2011,Collisions With Other Vehicles,Nan,Nan,170871,49.2697098,-123.14079109999999,"W 2nd Ave & Fir St, Vancouver, BC V6J 3B1, Canada"
Waterloo St,W Broadway,Vancouver,11/01/2011,Collisions With Other Vehicles,Nan,Nan,171186,49.2642758,-123.1798446,"W Broadway & Waterloo St, Vancouver, BC V6R 3H4, Canada"
60 Ave,Granville,Vancouver,11/01/2011,Collisions With Objects,Nan,Nan,171115,49.216777,-123.14024199999999,"Granville St & W 60th Ave, Vancouver, BC V6P 4Y7, Canada"
Heather,King Edward,Vancouver,11/01/2011,Collisions With Other Vehicles,Nan,Nan,171122,49.2491659,-123.1203602,"W King Edward Ave & Heather St, Vancouver, BC V5Z 2C6, Canada"
Nan,Surrey Central Station,Surrey,12/01/2011,Collisions With Objects,1999.0,Wf,169498,49.18961289999999,-122.84794840000002,"Surrey Central Station, 14479 106 Ave, Surrey, BC V3R 1S9, Canada"
Mountain Hwy,Main,North Vancouver,13/01/2011,Collisions With Other Vehicles,Nan,Nan,131194,49.305259299999996,-123.03205120000001,"Mountain Hwy & Main St, North Vancouver, BC V7J 1E2, Canada"
St. John,William,Port Moody,13/01/2011,Collisions With People,Nan,Nan,169495,49.2769502,-122.8634264,"2206 St Johns St, Port Moody, BC V3H 2A7, Canada"
135 Stop,Burrard Station,Vancouver,13/01/2011,Collisions With Objects,Nan,Nan,169541,49.2854669,-123.1201261,"Burrard, Vancouver, BC V6C 0A4, Canada"
Courtenay,10 Ave,Vancouver,13/01/2011,Collisions With Other Vehicles,Nan,Nan,123280,49.2636967,-123.1999707,"Courtenay St & W 10th Ave, Vancouver, BC V6R 2H3, Canada"
Robson,Granville,Vancouver,14/01/2011,Collisions With Other Vehicles,Nan,Nan,169485,49.2813649,-123.1198429,"Robson St & Granville St, Vancouver, BC V6Z 1A1, Canada"
Cambie,Hastings,Vancouver,14/01/2011,Collisions With Other Vehicles,Nan,Nan,169364,49.282540600000004,-123.10957379999999,"Cambie St & W Hastings St, Vancouver, BC V6B 2N4, Canada"
6 Ave,8 St,New Westminster,15/01/2011,Collisions With Objects,Nan,Nan,170687,49.211176,-122.92400990000002,"6th Ave & 8th St, New Westminster, BC V3M 3S2, Canada"
Tatlon,Marine,North Vancouver,15/01/2011,Collisions With Objects,Nan,Nan,169434,49.314806,-123.08955390000001,"419 Esplanade W, North Vancouver, BC V7M 1A6, Canada"
Robson,Burrard,Vancouver,17/01/2011,Collisions With Objects,Nan,Nan,171190,49.283297499999996,-123.12280159999999,"Robson St & Burrard St, Vancouver, BC V6E 1A9, Canada"
B/W Maple & East Blvd,41 Ave,Vancouver,18/01/2011,Collisions With Objects,Nan,Nan,170569,49.234539,-123.15500800000001,"East Blvd & W 41st Ave, Vancouver, BC V6M, Canada"
17 Ave,Fraser,Vancouver,18/01/2011,Collisions With Other Vehicles,Nan,Nan,170337,49.25552879999999,-123.0898615,"E 17th Ave & Fraser St, Vancouver, BC V5V 4C1, Canada"
B/W Maple & East Blvd,41 Ave,Vancouver,18/01/2011,Collisions With Other Vehicles,Nan,Nan,170220,49.234539,-123.15500800000001,"East Blvd & W 41st Ave, Vancouver, BC V6M, Canada"
B/W 10  Ave & Broadway,Main,Vancouver,18/01/2011,Collisions With Other Vehicles,Nan,Nan,169356,49.26277,-123.10449640000002,"10 E Broadway W, Vancouver, BC V5T 1V6, Canada"
142 St,64 Ave,Surrey,19/01/2011,Collisions With Other Vehicles,Nan,Nan,170688,49.1191654,-122.8288047,"64 Ave & 142 St, Surrey, BC V3W 5M6, Canada"
Dunbar Loop,Dunbar Loop,Vancouver,20/01/2011,Collisions With Other Vehicles,Nan,Nan,169871,49.234593,-123.18575009999999,"Dunbar St @ Dunbar Loop, Vancouver, BC V6N, Canada"
Side Fence,Coquitlam Station,Coquitlam,20/01/2011,Collisions With Other Vehicles,Nan,Nan,171177,49.2739076,-122.800077,"Coquitlam Central, 2900 Barnet Hwy, Coquitlam, BC V3B 0G1, Canada"
Davie,Granville,Vancouver,21/01/2011,Collisions With Other Vehicles,Nan,Nan,171053,49.277146,-123.1261827,"Granville St & Davie St, Vancouver, BC V6B 2G6, Canada"
B/W National & Prior,Main,Vancouver,21/01/2011,Collisions With Other Vehicles,Nan,Nan,170473,49.2769016,-123.0997601,"Main St & Prior St, Vancouver, BC V6A, Canada"
Bay 1,Phibbs Exch,North Vancouver,21/01/2011,Collisions With Other Vehicles,Nan,Nan,169636,49.305174,-123.0286,"Phibbs Exchange @ Bay 1, North Vancouver, BC V7J, Canada"
49 Ave,Granville,Vancouver,21/01/2011,Collisions With Objects,Nan,Nan,169980,49.226960399999996,-123.1398446,"Granville St & W 49th Ave, Vancouver, BC V6M 3E7, Canada"
Cliveden Off Ramp,Hwy 91,Surrey,22/01/2011,Collisions With Other Vehicles,Nan,Nan,169985,49.171733,-122.94928,"Northbound Hwy 91 Offramp @ Cliveden Ave, Delta, BC V3M, Canada"
Carrall,Pender,Vancouver,22/01/2011,Collisions With Objects,Nan,Nan,128661,49.280491600000005,-123.10436920000001,"Carrall St & W Pender St, Vancouver, BC V6A 3V6, Canada"
Seymour,Robson,Vancouver,23/01/2011,Collisions With Objects,Nan,Nan,170480,49.2807267,-123.1188413,"Robson St & Seymour St, Vancouver, BC V6B 2B9, Canada"
Eastern Dr,Eastern Dr,Port Coquitlam,23/01/2011,Collisions With Objects,Nan,Nan,168953,49.240384000000006,-122.78286100000001,"Eastern Dr, Port Coquitlam, BC V3C, Canada"
Richards,Robson,Vancouver,23/01/2011,Collisions With Objects,Nan,Nan,169407,49.2800903,-123.117857,"Robson St & Richards St, Vancouver, BC V6B 2B5, Canada"
Victoria,Kingsway,Vancouver,24/01/2011,Collisions With Other Vehicles,Nan,Nan,170821,49.245142200000004,-123.06523179999999,"Kingsway & Victoria Dr, Vancouver, BC V5N 2S9, Canada"
Georgia,Cambie,Vancouver,24/01/2011,Collisions With Objects,Nan,Nan,169308,49.2793345,-123.11325959999999,"W Georgia St & Cambie St, Vancouver, BC V6B 4P4, Canada"
Dunsmuir,Burrard,Vancouver,25/01/2011,Collisions With Other Vehicles,Nan,Nan,171180,49.28554570000001,-123.11939540000002,"Burrard St & Dunsmuir St, Vancouver, BC V6C, Canada"
300 Block,8 Av,New Westminster,26/01/2011,Collisions With Other Vehicles,Nan,Nan,168851,49.217938200000006,-122.9198487,"300 8th Ave, New Westminster, BC V3L 1Y2, Canada"
Clark,Powell,Vancouver,26/01/2011,Collisions With Objects,Nan,Nan,168601,49.2830735,-123.0769795,"Clark Dr & Powell St, Vancouver, BC V5L, Canada"
Macintosh,Edge,Maple Ridge,26/01/2011,Collisions With Other Vehicles,Nan,Nan,171063,49.2196035,-122.5978307,"McIntosh Ave & Edge St, Maple Ridge, BC V2X 6G2, Canada"
Cooney,Lansdowne,Richmond,27/01/2011,Collisions With Objects,Nan,Nan,171176,49.173758899999996,-123.13153999999999,"Lansdowne Rd & Cooney Rd, Richmond, BC V6X 3G3, Canada"
Commercial,Broadway,Vancouver,27/01/2011,Collisions With Other Vehicles,Nan,Nan,134132,49.2623855,-123.06976759999999,"Commercial Dr & E Broadway, Vancouver, BC V5N 1W2, Canada"
Oxford,Lincoln,Port Coquitlam,28/01/2011,Collisions With Objects,Nan,Nan,168135,49.2784044,-122.76725379999999,"Oxford St & Lincoln Ave, Coquitlam, BC V3B, Canada"
Bay 2,Marine Stn,Vancouver,28/01/2011,Collisions With Other Vehicles,Nan,Nan,168034,49.209383,-123.1161159,"Marine Drive Station @ Bay 2, Vancouver, BC V5X 0C7, Canada"
Commercial,8 Ave,Vancouver,28/01/2011,Collisions With Other Vehicles,Nan,Nan,167533,49.2630218,-123.06974720000001,"Commercial Dr & E 8th Ave, Vancouver, BC V5N 4B9, Canada"
B/W 40 & 41 Ave,Granville,Vancouver,28/01/2011,Collisions With Objects,Nan,Nan,168743,49.2343405,-123.13962579999999,"Granville St & W 41st Ave, Vancouver, BC V6M 1X7, Canada"
6 Ave,Main,Vancouver,28/01/2011,Collisions With Objects,Nan,Nan,171168,49.2655052,-123.10077609999999,"Main St & E 6th Ave, Vancouver, BC V5T, Canada"
16 Ave,Main,Vancouver,29/01/2011,Collisions With Other Vehicles,Nan,Nan,168717,49.25658,-123.10123590000002,"Main St & E 16th Ave, Vancouver, BC V5T 3G7, Canada"
14 St,8 Ave,New Westminster,30/01/2011,Collisions With Objects,Nan,Nan,168330,49.20882520000001,-122.93723680000001,"8th Ave & 14th St, New Westminster, BC V3M 2S3, Canada"
Nan,Riverview Hospital,Coquitlam,31/01/2011,Collisions With Objects,Nan,Nan,124187,49.2508389,-122.8061709,"2601 Lougheed Hwy, Coquitlam, BC V3C 4J2, Canada"
Bond,Willingdon,Vancouver,02/02/2011,Collisions With Objects,Nan,Nan,169209,49.2353951,-123.0034,"Bond St & Willingdon Ave, Burnaby, BC V5H 2T3, Canada"
128 St,104 Ave,Surrey,02/02/2011,Collisions With Objects,Nan,Nan,169314,49.1916511,-122.8677121,"128 St & 104 Ave, Surrey, BC V3T 2Z4, Canada"
Ubc,Ubc Diesel Loop,Vancouver,02/02/2011,Collisions With Other Vehicles,Nan,Nan,169315,49.2675511,-123.2481004,"UBC Exchange, Greater Vancouver A, University Endowment Lands, BC V6T 2B9, Canada"
2 Ave,Commercial,Vancouver,02/02/2011,Collisions With Other Vehicles,Nan,Nan,135052,49.26869979999999,-123.0696656,"Commercial Dr & E 2nd Ave, Vancouver, BC V5N 4A5, Canada"
12 Ave,Granville,Vancouver,03/02/2011,Collisions With Other Vehicles,Nan,Nan,169091,49.260836100000006,-123.1386629,"Granville St & W 12th Ave, Vancouver, BC V6H 1M7, Canada"
B/W Ontario & Main,Sw Marine,Vancouver,04/02/2011,Collisions With Other Vehicles,Nan,Nan,170226,49.2111669,-123.10219140000001,"Main St & SE Marine Dr, Vancouver, BC V5X 2S4, Canada"
Connaught,Granville,Vancouver,04/02/2011,Collisions With Objects,Nan,Nan,167660,49.2362763,-123.1395617,"Granville St & Connaught Dr, Vancouver, BC V6M 3G6, Canada"
Cook,3 Rd,Richmond,05/02/2011,Collisions With Other Vehicles,Nan,Nan,167651,49.166517799999994,-123.13647420000001,"Cook Rd & Number 3 Rd, Richmond, BC V6Y 0A2, Canada"
Track # 5,Vtc Yard,Vancouver,05/02/2011,Collisions With Objects,Nan,Nan,167663,49.282729100000005,-123.1207375,"Vancouver, BC, Canada"
Yukon,Sw Marine,Vancouver,05/02/2011,Collisions With Other Vehicles,Nan,Nan,168166,49.210961,-123.1153397,"SW Marine Dr & Yukon St, Vancouver, BC V5X 2R9, Canada"
Bay 13,Ubc Loop,Vancouver,07/02/2011,Collisions With Other Vehicles,Nan,Nan,169882,49.266049,-123.246605,"Ubc Exchange Bay 13, University Endowment Lands, BC V6T 2B9, Canada"
53 Rd,Granville,Vancouver,07/02/2011,Collisions With Objects,Nan,Nan,168389,49.222602,-123.140022,"Granville St & W 53rd Ave, Vancouver, BC V6P 1L1, Canada"
Abbott,Expo Blvd,Vancouver,07/02/2011,Collisions With Objects,Nan,Nan,168390,49.278616299999996,-123.1076226,"Abbott St & Expo Blvd, Vancouver, BC V6B, Canada"
Commercial,Granview,Vancouver,07/02/2011,Collisions With Objects,Nan,Nan,167922,49.2739592,-123.0695801,"Commercial Dr, Vancouver, BC, Canada"
Nan,Brentwood Station,Burnaby,07/02/2011,Collisions With Objects,Nan,Nan,167923,49.266396,-123.001829,"Brentwood Town Centre Station, Burnaby, BC V5C, Canada"
Ladner Exchange,Harvest,Delta,07/02/2011,Collisions With Other Vehicles,Nan,Nan,167437,49.0877755,-123.0615365,"Ladner Exchange Bay 6, Delta, BC V4K, Canada"
6 St,6 Ave,New Westminster,07/02/2011,Collisions With Objects,Nan,Nan,169228,49.2131592,-122.9203771,"6th Ave & 6th St, New Westminster, BC V3L 3C2, Canada"
Nan,Purcell Way,North Vancouver,07/02/2011,Collisions With Objects,Nan,Nan,169619,49.317754,-123.019085,"2055 Purcell Way, North Vancouver, BC V7J 3H5, Canada"
20 St,7 Ave,New Westminster,08/02/2011,Collisions With Other Vehicles,Nan,Nan,169229,49.2015763,-122.94675459999999,"20th St & 7th Ave, New Westminster, BC V3M 4W4, Canada"
Thurlow,Robson,Vancouver,08/02/2011,Collisions With Other Vehicles,Nan,Nan,167441,49.2846045,-123.124824,"Robson St & Thurlow St, Vancouver, BC V6E 1V9, Canada"
Plateau,Paddock,Coquitlam,08/02/2011,Collisions With Other Vehicles,Nan,Nan,169280,49.3076095,-122.78671100000001,"Plateau Blvd & Paddock Dr, Coquitlam, BC V3E 3A8, Canada"
Clark,Venables,Vancouver,09/02/2011,Collisions With Other Vehicles,Nan,Nan,168281,49.276788399999994,-123.0772461,"Venables St & Clark Dr, Vancouver, BC V5L 2G1, Canada"
Seaward Gate,Steveston Hwy,Richmond,09/02/2011,Collisions With Objects,Nan,Nan,168015,49.133362,-123.099601,"Steveston Hwy & Seaward Gate, Richmond, BC V7A 5J5, Canada"
Nan,Vtc Yard,Vancouver,09/02/2011,Collisions With Objects,Nan,Nan,169753,49.282729100000005,-123.1207375,"Vancouver, BC, Canada"
Robson,Granville,Vancouver,10/02/2011,Collisions With Other Vehicles,Nan,Nan,171028,49.2813649,-123.1198429,"Robson St & Granville St, Vancouver, BC V6Z 1A1, Canada"
Langley Bypass,Fraser Hwy,Langley,10/02/2011,Collisions With Other Vehicles,Nan,Nan,169119,49.1010481,-122.6433105,"Fraser Hwy & Langley Bypass, Langley City, BC V3A, Canada"
Willingdon,Hastings,Burnaby,11/02/2011,Collisions With Objects,Nan,Nan,171150,49.281019,-123.0031033,"Hastings St & Willingdon Ave, Burnaby, BC V5C 2K3, Canada"
Davie,Burrard,Vancouver,11/02/2011,Collisions With Objects,Nan,Nan,171027,49.2790856,-123.1291844,"Burrard St & Davie St, Vancouver, BC V6Z 1Y9, Canada"
Clark,Broadway,Vancouver,11/02/2011,Collisions With Objects,Nan,Nan,169391,49.26242,-123.0774597,"E Broadway & Clark Dr, Vancouver, BC V5N 1V7, Canada"
Dunsmuir,Richards,Vancouver,12/02/2011,Collisions With Other Vehicles,Nan,Nan,171152,49.2823627,-123.11447109999999,"Richards St & Dunsmuir St, Vancouver, BC V6B, Canada"
Nan,Surrey Central Station,Surrey,13/02/2011,Collisions With Other Vehicles,Nan,Nan,169235,49.18961289999999,-122.84794840000002,"Surrey Central Station, 14479 106 Ave, Surrey, BC V3R 1S9, Canada"
Devonshire,Granville,Vancouver,14/02/2011,Collisions With Objects,Nan,Nan,169861,49.246495700000004,-123.13917839999999,"Granville St & Devonshire Crescent, Vancouver, BC V6H 3L6, Canada"
Nan,Bedwell,Port Moody,14/02/2011,Collisions With Objects,Nan,Nan,169395,49.3236672,-122.91048740000001,"Bedwell Bay, Belcarra, BC, Canada"
Clark,Venables,Vancouver,14/02/2011,Collisions With Other Vehicles,Nan,Nan,171029,49.276788399999994,-123.0772461,"Venables St & Clark Dr, Vancouver, BC V5L 2G1, Canada"
Renfrew,Mcgill,Vancouver,14/02/2011,Collisions With Objects,Nan,Nan,170808,49.2886501,-123.044072,"McGill St & Renfrew St, Vancouver, BC V5K, Canada"
Bay 3,Surrey Central Station,Surrey,16/02/2011,Collisions With Other Vehicles,Nan,Nan,169404,49.188846999999996,-122.84882900000001,"Surrey Central Station Bay 3, Surrey, BC V3T, Canada"
Pender,Cambie,Vancouver,16/02/2011,Collisions With People,Nan,Nan,169515,49.2815618,-123.1099992,"W Pender St & Cambie St, Vancouver, BC V6B, Canada"
Cherry,Joyce,Vancouver,16/02/2011,Collisions With Other Vehicles,Nan,Nan,167528,49.2354505,-123.03465800000001,"Joyce St & Cherry St, Vancouver, BC V5R, Canada"
Abbott,Cordova,Vancouver,18/02/2011,Collisions With Other Vehicles,Nan,Nan,171047,49.282952,-123.10675149999999,"Abbott St & W Cordova St, Vancouver, BC V6B 1C9, Canada"
5700 Block,Halifax,Burnaby,18/02/2011,Collisions With Other Vehicles,Nan,Nan,170590,49.267760700000004,-122.9812814,"5700 Halifax St, Burnaby, BC V5B 2N7, Canada"
Keefer,Main,Vancouver,18/02/2011,Collisions With Other Vehicles,Nan,Nan,169415,49.2794823,-123.09973729999999,"Main St & Keefer St, Vancouver, BC V6A 1X4, Canada"
Esplanade,Lonsdale,North Vancouver,18/02/2011,Collisions With People,Nan,Nan,169394,49.3231229,-123.07235290000001,"Lonsdale Ave, North Vancouver, BC, Canada"
Nanaimo,Broadway,Vancouver,19/02/2011,Collisions With Objects,Nan,Nan,167798,49.2620945,-123.0564871,"E Broadway & Nanaimo St, Vancouver, BC V5M 4T9, Canada"
Burrard,Davie,Vancouver,19/02/2011,Collisions With Objects,Nan,Nan,169740,49.2790856,-123.1291844,"Burrard St & Davie St, Vancouver, BC V6Z 1Y9, Canada"
Nan,Sw Marine,Vancouver,19/02/2011,Collisions With Other Vehicles,Nan,Nan,169973,49.3280242,-123.15567560000001,"1454 Marine Dr, West Vancouver, BC V7T 1B7, Canada"
200 St,56 Ave,Langley,20/02/2011,Collisions With Other Vehicles,Nan,Nan,171035,49.1044261,-122.6687157,"56 Ave & 200 St, Langley City, BC V3A, Canada"
6 Ave,6 St,New Westminster,21/02/2011,Collisions With Other Vehicles,Nan,Nan,168161,49.2131592,-122.9203771,"6th Ave & 6th St, New Westminster, BC V3L 3C2, Canada"
Granville,49 Ave,Vancouver,21/02/2011,Collisions With Objects,Nan,Nan,169396,49.226960399999996,-123.1398446,"Granville St & W 49th Ave, Vancouver, BC V6M 3E7, Canada"
Lougheed Hwy,Willingdon,Burnaby,21/02/2011,Collisions With Other Vehicles,Nan,Nan,169509,49.2663512,-123.0032816,"Willingdon Ave & Lougheed Hwy, Burnaby, BC V5C, Canada"
Douglas Cres,204 St,Langley,23/02/2011,Collisions With People,Nan,Nan,169210,49.103463,-122.65657790000002,"Douglas Crescent & 204 St, Langley City, BC V3A 5N8, Canada"
Hwy Overpass,Willingdon,Burnaby,23/02/2011,Collisions With Other Vehicles,Nan,Nan,168394,49.2504925,-123.00441000000001,"Willingdon Ave, Burnaby, BC, Canada"
54A Ave,152 St,Surrey,23/02/2011,Collisions With Objects,Nan,Nan,177597,49.1016945,-122.80115020000001,"54a Ave & 152 St, Surrey, BC V3S 5A5, Canada"
Surrey Central Loop,Surrey Central Station,Surrey,24/02/2011,Collisions With Objects,Nan,Nan,168286,49.189383500000005,-122.84782539999999,"10309-10321 City Pkwy, Surrey, BC V3T 4Y8, Canada"
Cordova,Burrard,Vancouver,25/02/2011,Collisions With Objects,Nan,Nan,167807,49.287665399999995,-123.1162061,"Burrard St & W Cordova St, Vancouver, BC V6C, Canada"
West Blvd,41 Ave,Vancouver,25/02/2011,Collisions With Other Vehicles,Nan,Nan,167925,49.234625,-123.1555635,"West Blvd & W 41st Ave, Vancouver, BC V6M 1Z6, Canada"
Homer,Pender,Vancouver,25/02/2011,Collisions With Other Vehicles,Nan,Nan,122682,49.282763,-123.11191720000001,"Homer St & W Pender St, Vancouver, BC V6B 2V6, Canada"
Burrard,Smithe,Vancouver,26/02/2011,Collisions With Other Vehicles,Nan,Nan,167887,49.28225379999999,-123.12444640000001,"Burrard St & Smithe St, Vancouver, BC V6Z 2K7, Canada"
Minoru,Granville,Richmond,26/02/2011,Collisions With Other Vehicles,Nan,Nan,170300,49.1626735,-123.1430246,"Minoru Gate & Granville Ave, Richmond, BC V6Y 3Y6, Canada"
Comox,Denman,Vancouver,26/02/2011,Collisions With Other Vehicles,Nan,Nan,114051,49.2886941,-123.1396737,"Denman St & Comox St, Vancouver, BC V6G 2M4, Canada"
Kootenay Loop,Hastings,Vancouver,27/02/2011,Collisions With Objects,Nan,Nan,122438,49.281120200000004,-123.0256976,"Kootenay St & E Hastings St, Vancouver, BC V5K 2A9, Canada"
4 Ave,Commercial,Vancouver,28/02/2011,Collisions With Other Vehicles,Nan,Nan,170700,49.266884600000004,-123.069682,"Commercial Dr & E 4th Ave, Vancouver, BC V5N 4A9, Canada"
Hastings,Howe,Vancouver,28/02/2011,Collisions With People,Nan,Nan,168723,49.2859526,-123.1148569,"W Hastings St & Howe St, Vancouver, BC V6C 2X1, Canada"
Clark,Broadway,Vancouver,28/02/2011,Collisions With Other Vehicles,Nan,Nan,168745,49.26242,-123.0774597,"E Broadway & Clark Dr, Vancouver, BC V5N 1V7, Canada"
Farebox Island,Ptc  Yard,Port Coquitlam,28/02/2011,Collisions With Objects,Nan,Nan,170218,49.262838200000004,-122.78107079999998,"Port Coquitlam, BC, Canada"
Penticton,Broadway,Vancouver,28/02/2011,Collisions With Other Vehicles,Nan,Nan,169514,49.262111,-123.05188899999999,"Westbound E Broadway @ Penticton St, Vancouver, BC V5M 4G6, Canada"
Arbutus,Broadway,Vancouver,28/02/2011,Collisions With Other Vehicles,Nan,Nan,132676,49.263772100000004,-123.15234140000001,"W Broadway & Arbutus Greenway, Vancouver, BC V6J 1Z4, Canada"
Main,Hastings,Vancouver,28/02/2011,Collisions With Other Vehicles,Nan,Nan,167805,49.2813379,-123.09965009999999,"Main St & E Hastings St, Vancouver, BC V6A 2T7, Canada"
110 Ave,Scott Rd,Surrey,01/03/2011,Collisions With Other Vehicles,Nan,Nan,167803,49.2028648,-122.8781821,"110 Ave & Scott Rd, Surrey, BC V3V, Canada"
135 St,104 Ave,Surrey,01/03/2011,Collisions With Other Vehicles,Nan,Nan,170217,49.1916875,-122.84769170000001,"135 St & 104 Ave, Surrey, BC V3T 1W1, Canada"
Pender,Burrard,Vancouver,02/03/2011,Collisions With Other Vehicles,Nan,Nan,170365,49.2865925,-123.11779299999999,"Burrard St & W Pender St, Vancouver, BC V6C 1M2, Canada"
12 Ave,Oak,Vancouver,02/03/2011,Collisions With Other Vehicles,Nan,Nan,170362,49.260642,-123.12677830000001,"W 12th Ave & Oak St, Vancouver, BC V6H 3N3, Canada"
Kingsway,Willingdon,Burnaby,02/03/2011,Collisions With Other Vehicles,Nan,Nan,170234,49.230226200000004,-123.0049275,"Willingdon Ave & Kingsway, Burnaby, BC V5H 2A6, Canada"
Harrison Loop,Harrison Loop,Vancouver,03/03/2011,Collisions With Other Vehicles,Nan,Nan,168048,49.2100999,-123.06466640000001,"Harrison Loop, Vancouver, BC V5P, Canada"
Kootney Loop,Hastings,Burnaby,04/03/2011,Collisions With Other Vehicles,Nan,Nan,168049,49.281120200000004,-123.0256976,"Kootenay St & E Hastings St, Vancouver, BC V5K 2A9, Canada"
Mackenzie,Broadway,Vancouver,04/03/2011,Collisions With Other Vehicles,Nan,Nan,168517,49.264123299999994,-123.1700814,"W Broadway & MacKenzie St, Vancouver, BC V6K 2G6, Canada"
Cambie,3 Rd,Richmond,04/03/2011,Collisions With Other Vehicles,Nan,Nan,168245,49.1842271,-123.13607649999999,"4000 Number 3 Rd, Richmond, BC V6X 0J8, Canada"
Garden,Marine,North Vancouver,04/03/2011,Collisions With Objects,Nan,Nan,168171,49.319797799999996,-123.0920473,"705 3rd St W, North Vancouver, BC V7M 3E3, Canada"
Curtis,Kensington,Burnaby,04/03/2011,Collisions With Other Vehicles,Nan,Nan,168608,49.2752175,-122.9700789,"Kensington Ave & Curtis St, Burnaby, BC V5B 4B7, Canada"
Alma,Broadway,Vancouver,05/03/2011,Collisions With Other Vehicles,Nan,Nan,167917,49.2643679,-123.1858577,"W Broadway & Alma St, Vancouver, BC V6R 2B7, Canada"
Charleson,Moberly,Vancouver,05/03/2011,Collisions With Other Vehicles,Nan,Nan,168730,49.2662782,-123.12054369999998,"Charleson & Moberly Road, Vancouver, BC V5Z, Canada"
Bidwell,Davie,Vancouver,05/03/2011,Collisions With Other Vehicles,Nan,Nan,168609,49.2862473,-123.1402213,"Bidwell St & Davie St, Vancouver, BC V6G 2K6, Canada"
Davie,Burrard,Vancouver,06/03/2011,Collisions With Other Vehicles,Nan,Nan,132526,49.2790856,-123.1291844,"Burrard St & Davie St, Vancouver, BC V6Z 1Y9, Canada"
29 Ave,Earls,Vancouver,07/03/2011,Collisions With Other Vehicles,Nan,Nan,167800,49.2639421,-123.14146969999999,"1601 W Broadway, Vancouver, BC V6J 1W9, Canada"
South Fence,Surrey Central Station,Surrey,07/03/2011,Collisions With Objects,Nan,Nan,122382,49.18961289999999,-122.84794840000002,"Surrey Central Station, 14479 106 Ave, Surrey, BC V3R 1S9, Canada"
Fir,10 Avenue,Vancouver,07/03/2011,Collisions With Other Vehicles,Nan,Nan,170364,49.2626762,-123.14102920000002,"W 10th Ave & Fir St, Vancouver, BC V6J 3B9, Canada"
Mclean,Hastings,Vancouver,07/03/2011,Collisions With Other Vehicles,Nan,Nan,168596,49.2813328,-123.0741047,"McLean Dr & E Hastings St, Vancouver, BC V5L 1S4, Canada"
Granville,71 Ave,Vancouver,07/03/2011,Collisions With Other Vehicles,Nan,Nan,168728,49.207074600000006,-123.14066310000001,"Granville St & W 71st Ave, Vancouver, BC V6P 5A3, Canada"
23 Ave,Knight,Vancouver,08/03/2011,Collisions With Other Vehicles,Nan,Nan,168256,49.2498945,-123.07619220000001,"Knight St & E 23rd Ave, Vancouver, BC V5V 3E4, Canada"
Oak,Broadway,Vancouver,08/03/2011,Collisions With Other Vehicles,Nan,Nan,168257,49.26335460000001,-123.1266122,"W Broadway & Oak St, Vancouver, BC V6H 1E6, Canada"
Port Haney Train Stn,River Rd,Maple Ridge,08/03/2011,Collisions With Other Vehicles,Nan,Nan,122594,49.2122629,-122.60519359999999,"Port Haney Station, 22300 River Rd, Maple Ridge, BC V2X 2C5, Canada"
16 Ave,Mcdonald,Vancouver,09/03/2011,Collisions With Other Vehicles,Nan,Nan,167799,49.2578375,-123.16883359999999,"16th & MacDonald, 2805 W 16th Ave, Vancouver, BC V6K 3C5, Canada"
Nanaimo,Hastings,Vancouver,09/03/2011,Collisions With Other Vehicles,Nan,Nan,167567,49.281169299999995,-123.05668429999999,"E Hastings St & Nanaimo St, Vancouver, BC V5L 1V5, Canada"
203 St,56 Ave,Langley,09/03/2011,Collisions With Other Vehicles,Nan,Nan,168289,49.1041223,-122.6602098,"203 St & 56 Ave, Langley City, BC V3A 4B3, Canada"
Lions Way Bus Stop,Shaughnessy,Port Coquitlam,10/03/2011,Collisions With Objects,Nan,Nan,170559,49.265899,-122.777782,"Northbound Shaughnessy St @ Lions Way, Port Coquitlam, BC V3C 6K5, Canada"
Cumberland,Columbia,New Westminster,10/03/2011,Collisions With Other Vehicles,Nan,Nan,168176,49.22048529999999,-122.893006,"E Columbia St & Cumberland St, New Westminster, BC V3L 3V8, Canada"
12 Ave,6 St,New Westminster,10/03/2011,Collisions With Other Vehicles,Nan,Nan,169999,49.2205175,-122.9295202,"12th Ave & 6th St, Burnaby, BC V3N 4S3, Canada"
Ubc  Loop,Ubc Loop,Vancouver,11/03/2011,Collisions With Other Vehicles,Nan,Nan,168126,49.2675511,-123.2481004,"UBC Exchange, Greater Vancouver A, University Endowment Lands, BC V6T 2B9, Canada"
12 Ave,Clark,Vancouver,12/03/2011,Collisions With Objects,Nan,Nan,168492,49.25958320000001,-123.07744109999999,"E 12th Ave & Clark Dr, Vancouver, BC V5N 1Z9, Canada"
Terminal,Station,Vancouver,13/03/2011,Collisions With Other Vehicles,Nan,Nan,168756,49.2726501,-123.09858729999999,"Station St & Terminal Ave, Vancouver, BC V6A, Canada"
National,Main,Vancouver,14/03/2011,Collisions With Other Vehicles,Nan,Nan,167813,49.287725099999996,-123.1139605,"999 Canada Pl, Vancouver, BC V6C 3B5, Canada"
Pender,Abbott,Vancouver,14/03/2011,Collisions With Objects,Nan,Nan,168493,49.281097700000004,-123.1075616,"Abbott St & W Pender St, Vancouver, BC V6B 1R3, Canada"
Coquitlam Station,Coquitlam Station,Coquitlam,15/03/2011,Collisions With Other Vehicles,Nan,Nan,168150,49.2795306,-122.79815409999999,"2929 Barnet Hwy, Coquitlam, BC V3B 5R5, Canada"
70 Ave,Granville,Vancouver,16/03/2011,Collisions With Other Vehicles,Nan,Nan,167586,49.208540899999996,-123.14061729999999,"Granville St & W 70th Ave, Vancouver, BC V6P 4Z9, Canada"
23 Ave,Oak,Vancouver,16/03/2011,Collisions With Other Vehicles,Nan,Nan,119110,49.2508015,-123.127421,"W 23rd Ave & Oak St, Vancouver, BC V5Z 2B3, Canada"
Bay 5,Langley Center,Langley,16/03/2011,Collisions With Objects,Nan,Nan,168611,49.106449,-122.65472700000001,"Langley Centre @ Bay 5, Langley City, BC V3A 4L9, Canada"
 Bay 11 & 12,Surrey Central Station,Surrey,17/03/2011,Collisions With Other Vehicles,Nan,Nan,134326,49.189406,-122.84776299999999,"Surrey Central Station Bay 11, Surrey, BC V3T 4C3, Canada"
228 St,Dewdney  Rd,Maple Ridge,17/03/2011,Collisions With Objects,Nan,Nan,168603,49.2197687,-122.5906858,"11965 228 St, Maple Ridge, BC V2X 6M1, Canada"
Heather,Broadway,Vancouver,17/03/2011,Collisions With Other Vehicles,Nan,Nan,168870,49.263291100000004,-123.1198761,"W Broadway & Heather St, Vancouver, BC V5Z 3J2, Canada"
Unloading Bay,22 Station,New Westminster,18/03/2011,Collisions With Other Vehicles,Nan,Nan,168359,49.1999652,-122.949048,"22nd Street, 649 22nd St, New Westminster, BC V3M, Canada"
10 Hwy Langley Bypass,Fraser Hwy,Langley,18/03/2011,Collisions With Other Vehicles,Nan,Nan,168361,49.1010481,-122.6433105,"Fraser Hwy & Langley Bypass, Langley City, BC V3A, Canada"
Granville,3 Rd,Richmond,19/03/2011,Collisions With Other Vehicles,Nan,Nan,126226,49.162669799999996,-123.13650420000002,"Granville Ave & Number 3 Rd, Richmond, BC V6Y 1P4, Canada"
Crown,41 Ave,Vancouver,19/03/2011,Collisions With Other Vehicles,Nan,Nan,170677,49.234774,-123.193727,"W 41st Ave & Crown St, Vancouver, BC V6N 3G2, Canada"
Richards,Hastings,Vancouver,21/03/2011,Collisions With Other Vehicles,Nan,Nan,168181,49.283796,-123.1124201,"Southbound Richards St @ W Hastings St, Richards St Hastings St, Vancouver, BC V6B 1L6, Canada"
Burrard,16 Ave,Vancouver,21/03/2011,Collisions With Objects,Nan,Nan,168489,49.2571739,-123.14600149999998,"Burrard St & W 16th Ave, Vancouver, BC V6J 2M2, Canada"
Nan,Coquitlam Station,Coquitlam,21/03/2011,Collisions With Other Vehicles,Nan,Nan,117352,49.2739076,-122.800077,"Coquitlam Central, 2900 Barnet Hwy, Coquitlam, BC V3B 0G1, Canada"
Surrey Central Station,Surrey Central Station,Surrey,22/03/2011,Collisions With Objects,Nan,Nan,167794,49.18961289999999,-122.84794840000002,"Surrey Central Station, 14479 106 Ave, Surrey, BC V3R 1S9, Canada"
Richards,Robson,Vancouver,22/03/2011,Collisions With Objects,Nan,Nan,168612,49.2800903,-123.117857,"Robson St & Richards St, Vancouver, BC V6B 2B5, Canada"
Alberta,49 Ave,Vancouver,22/03/2011,Collisions With Objects,Nan,Nan,168613,49.226000799999994,-123.11294550000001,"W 49th Ave & Alberta St, Vancouver, BC V5Y 2Z8, Canada"
Curtis,Holdom,Burnaby,23/03/2011,Collisions With Other Vehicles,Nan,Nan,145635,49.2755029,-122.98098,"Holdom Ave & Curtis St, Burnaby, BC V5B 3V4, Canada"
41 Ave,Fraser,Vancouver,24/03/2011,Collisions With Other Vehicles,Nan,Nan,170908,49.2329525,-123.0904673,"E 41st Ave & Fraser St, Vancouver, BC V5W 1P4, Canada"
Kootenay,Hastings,Vancouver,24/03/2011,Collisions With Objects,Nan,Nan,169103,49.281120200000004,-123.0256976,"Kootenay St & E Hastings St, Vancouver, BC V5K 2A9, Canada"
Richards,Pender,Vancouver,24/03/2011,Collisions With Objects,Nan,Nan,169102,49.283396,-123.11288090000001,"Richards St & W Pender St, Vancouver, BC V6B 3A2, Canada"
 Georgia,Cambie,Vancouver,25/03/2011,Collisions With Objects,Nan,Nan,167796,49.2793345,-123.11325959999999,"W Georgia St & Cambie St, Vancouver, BC V6B 4P4, Canada"
Pender,Main,Vancouver,26/03/2011,Collisions With Other Vehicles,Nan,Nan,123958,49.2803878,-123.09969440000002,"Main St & E Pender St, Vancouver, BC V6A 2V2, Canada"
Dunbar Loop,Dunbar Loop,Vancouver,26/03/2011,Collisions With Other Vehicles,Nan,Nan,168309,49.234593,-123.18575009999999,"Dunbar St @ Dunbar Loop, Vancouver, BC V6N, Canada"
Commercial,Hastings,Vancouver,28/03/2011,Collisions With Objects,Nan,Nan,168295,49.2812892,-123.07044599999999,"Commercial Dr & E Hastings St, Vancouver, BC V5L 3V6, Canada"
Bay 1,Marine  Station,Vancouver,28/03/2011,Collisions With Other Vehicles,Nan,Nan,168314,49.209109399999996,-123.11682420000001,"Marine Drive StnBay 1, Vancouver, BC V5X 0C7, Canada"
18 Ave,Cambie,Vancouver,28/03/2011,Collisions With Other Vehicles,Nan,Nan,148420,49.25487329999999,-123.1151876,"Cambie St & W 18th Ave, Vancouver, BC V5Z 3B7, Canada"
Cambie,Hastings,Vancouver,29/03/2011,Collisions With People,Nan,Nan,168315,49.282540600000004,-123.10957379999999,"Cambie St & W Hastings St, Vancouver, BC V6B 2N4, Canada"
13 St,6 Ave,New Westminster,29/03/2011,Collisions With Objects,Nan,Nan,170912,49.2068044,-122.93209540000001,"6th Ave & 13th St, New Westminster, BC V3M 4L9, Canada"
Salsbury,Hastings,Vancouver,29/03/2011,Collisions With Objects,Nan,Nan,168434,49.2811561,-123.0682695,"Salsbury Dr & E Hastings St, Vancouver, BC V5L 3Z4, Canada"
203 St,64 Ave,Langley,29/03/2011,Collisions With Other Vehicles,Nan,Nan,168534,49.118894899999994,-122.66005430000001,"203 St & 64 Ave, Langley Twp, BC V2Y, Canada"
Nvt Yard,Nvt Yard,North Vancouver,30/03/2011,Collisions With Other Vehicles,Nan,Nan,167835,49.3199816,-123.0724139,"North Vancouver, BC, Canada"
Fraser,Se Marine,Vancouver,30/03/2011,Collisions With Other Vehicles,Nan,Nan,168069,49.21095510000001,-123.0911787,"SE Marine Dr & Fraser St, Vancouver, BC V5X 2T4, Canada"
Civic Center Access,Dewdney Trunk Rd,Maple Ridge,31/03/2011,Collisions With Other Vehicles,Nan,Nan,167498,49.219913899999995,-122.5996999,"22470 Dewdney Trunk Rd #175, Maple Ridge, BC V2X 5Z6, Canada"
Granville,Broadway,Vancouver,31/03/2011,Collisions With Other Vehicles,Nan,Nan,167728,49.263561100000004,-123.13859679999999,"Granville St & W Broadway, Vancouver, BC V6H 3G7, Canada"
Langley Centre,Bay 4,Langley,01/04/2011,Collisions With Other Vehicles,Nan,Nan,168442,49.106346,-122.65449199999999,"Langley Centre @ Bay 4, Langley City, BC V3A 4L9, Canada"
Highbury,W 10 Av,Vancouver,01/04/2011,Collisions With Other Vehicles,Nan,Nan,167468,49.263521600000004,-123.18782309999999,"Highbury St & W 10th Ave, Vancouver, BC V6R 2G7, Canada"
Granville,3 Rd,Richmond,02/04/2011,Collisions With Other Vehicles,Nan,Nan,168439,49.162669799999996,-123.13650420000002,"Granville Ave & Number 3 Rd, Richmond, BC V6Y 1P4, Canada"
Garden City,Westminster,Richmond,02/04/2011,Collisions With Other Vehicles,Nan,Nan,167469,49.170068,-123.1247148,"Westminster Hwy & Garden City Rd, Richmond, BC V6X 1A8, Canada"
Dunsmuir,Howe,Vancouver,02/04/2011,Collisions With Objects,Nan,Nan,167855,49.284267799999995,-123.11743929999999,"Howe St & Dunsmuir St, Vancouver, BC V6C 2T6, Canada"
North End Of Underpass,Shaughnessy,Port Coquitlam,02/04/2011,Collisions With Objects,Nan,Nan,167730,49.257893,-122.78267190000001,"Shaughnessy St, Port Coquitlam, BC, Canada"
71 Av,Hudson,Vancouver,04/04/2011,Collisions With Other Vehicles,Nan,Nan,170510,49.206978899999996,-123.13466299999999,"W 71st Ave & Hudson St, Vancouver, BC V6P 4M5, Canada"
Nan,Coquitlam Bus Loop,Coquitlam,05/04/2011,Collisions With Objects,Nan,Nan,178194,49.2614802,-122.7740672,"Port Coquitlam, 2125 Kingsway Ave, Port Coquitlam, BC V3C 1T2, Canada"
Brentwood Mall Bus Station,Willingdon,Burnaby,05/04/2011,Collisions With Objects,Nan,Nan,169284,49.266396,-123.001829,"Brentwood Town Centre Station, Burnaby, BC V5C, Canada"
184,Fraser,Vancouver,06/04/2011,Collisions With Other Vehicles,Nan,Nan,167849,49.236552200000006,-123.09043600000001,"Fraser St, Vancouver, BC, Canada"
 207 St,Dewdney Trunk,Maple Ridge,07/04/2011,Collisions With Other Vehicles,Nan,Nan,125722,49.2205253,-122.64787040000002,"207 St & Dewdney Trunk Rd, Maple Ridge, BC V2X 3E4, Canada"
Cordova,Main,Vancouver,07/04/2011,Collisions With Objects,Nan,Nan,167502,49.282286299999996,-123.0996086,"Main St & E Cordova St, Vancouver, BC V6A 2S7, Canada"
43 Av,Victoria,Vancouver,08/04/2011,Collisions With Objects,Nan,Nan,168331,49.230506299999995,-123.0655929,"E 43rd Ave & Victoria Dr, Vancouver, BC V5P 3P9, Canada"
New Westminster Station,Carnarvon,New Westminster,08/04/2011,Collisions With Other Vehicles,Nan,Nan,168117,49.201111100000006,-122.9125,"800 Carnarvon St, New Westminster, BC V3M 0G3, Canada"
Broadway,Arbutus,Vancouver,08/04/2011,Collisions With Objects,Nan,Nan,167738,49.263783000000004,-123.1529284,"W Broadway & Arbutus St, Vancouver, BC V6J 3Y2, Canada"
Salsbury,Hastings,Vancouver,09/04/2011,Collisions With Other Vehicles,Nan,Nan,168436,49.2811561,-123.0682695,"Salsbury Dr & E Hastings St, Vancouver, BC V5L 3Z4, Canada"
B/W Kingsway,Joyce,Burnaby,10/04/2011,Collisions With Other Vehicles,Nan,Nan,168458,49.234207700000006,-123.0358375,"Joyce St & Kingsway, Vancouver, BC V5R, Canada"
Burrard,4 Av,Vancouver,12/04/2011,Collisions With Other Vehicles,Nan,Nan,168232,49.2680201,-123.14572530000001,"Burrard St & W 4th Ave, Vancouver, BC V6J 1M4, Canada"
40 Av,204 St,Langley,12/04/2011,Collisions With Objects,Nan,Nan,168235,49.0747006,-122.65857679999999,"40 Ave & 204 St, Langley Twp, BC V3A 2W8, Canada"
Denman,Robson,Vancouver,13/04/2011,Collisions With People,Nan,Nan,123922,49.2914913,-123.1354626,"Robson St & Denman St, Vancouver, BC V6G 2L6, Canada"
72 Ave,137 St,Surrey,14/04/2011,Collisions With Other Vehicles,Nan,Nan,167510,49.133528399999996,-122.84278470000001,"72 Ave & 137 St, Surrey, BC V3W, Canada"
27,Oak,Vancouver,14/04/2011,Collisions With Objects,Nan,Nan,173239,49.232599,-123.12806609999998,"Oak St, Vancouver, BC, Canada"
13 Ave,Granville,Vancouver,15/04/2011,Collisions With Other Vehicles,Nan,Nan,163860,49.259837,-123.1387014,"Granville St & W 13th Ave, Vancouver, BC V6H 1P1, Canada"
Boundary,Ewen ,New Westminster,15/04/2011,Collisions With Other Vehicles,Nan,Nan,178884,49.181856700000004,-122.95733590000002,"Ewen Ave & Boundary Rd, Richmond, BC V6V 2E5, Canada"
Nelson,Granville,Vancouver,16/04/2011,Collisions With Other Vehicles,Nan,Nan,167625,49.279274799999996,-123.12302,"Granville St & Nelson St, Vancouver, BC V6Z 2A8, Canada"
Ridgeway,3Rd,North Vancouver,17/04/2011,Collisions With Objects,Nan,Nan,168564,49.308542200000005,-123.0632269,"Ridgeway Ave & E 3rd St, North Vancouver, BC V7L 1G7, Canada"
Nan,Scott Rd Station,Surrey,17/04/2011,Collisions With Objects,Nan,Nan,167484,49.2044407,-122.8741392,"Scott Road Station, Surrey, BC V3V, Canada"
Oxford,Thrift,White Rock,18/04/2011,Collisions With Other Vehicles,Nan,Nan,168011,49.0276252,-122.8121928,"Thrift Ave & Oxford St, White Rock, BC V4B 5A1, Canada"
Rtc Depot,Track 35,Richmond,19/04/2011,Collisions With Objects,Nan,Nan,167521,49.1317346,-123.1013064,"11133 Coppersmith Way, Richmond, BC V7A 5E8, Canada"
Seymour,Pender,Vancouver,21/04/2011,Collisions With Other Vehicles,Nan,Nan,178660,49.284021,-123.11385779999999,"W Pender St & Seymour St, Vancouver, BC V6B 1V3, Canada"
Kingsway,Willingdon,Burnaby,21/04/2011,Collisions With Other Vehicles,Nan,Nan,168909,49.230226200000004,-123.0049275,"Willingdon Ave & Kingsway, Burnaby, BC V5H 2A6, Canada"
Dunsmuir,Cambie,Vancouver,21/04/2011,Collisions With People,Nan,Nan,169022,49.280474600000005,-123.1115545,"Cambie St & Dunsmuir St, Vancouver, BC V6B 2P1, Canada"
Richards,Pender,Vancouver,21/04/2011,Collisions With Other Vehicles,Nan,Nan,168290,49.283396,-123.11288090000001,"Richards St & W Pender St, Vancouver, BC V6B 3A2, Canada"
Bay 2,Joyce Station,Vancouver,21/04/2011,Collisions With Objects,Nan,Nan,169020,49.237786,-123.03057690000001,"Joyce Station @ Bay 2, Vancouver, BC V5R, Canada"
Grandview,Broadway,Vancouver,23/04/2011,Collisions With Objects,Nan,Nan,167523,49.2627342,-123.07048640000001,"1669 E Broadway, Vancouver, BC V5N 1V9, Canada"
Melbourne,Vanness,Vancouver,25/04/2011,Collisions With Other Vehicles,Nan,Nan,178771,49.23654260000001,-123.02819209999998,"Melbourne St & Vanness Ave, Vancouver, BC V5R, Canada"
70 Ave,Granville,Vancouver,25/04/2011,Collisions With Objects,Nan,Nan,167872,49.208540899999996,-123.14061729999999,"Granville St & W 70th Ave, Vancouver, BC V6P 4Z9, Canada"
Marine,Se Marine,Vancouver,26/04/2011,Collisions With Other Vehicles,Nan,Nan,178428,49.2081793,-123.02326550000001,"Marine Dr & SE Marine Dr, Burnaby, BC V5J 3A1, Canada"
Lonsdale Quay,Cates Crt,North Vancouver,26/04/2011,Collisions With People,Nan,Nan,178310,49.310370899999995,-123.08012,"Lonsdale Ave & Carrie Cates Ct, North Vancouver, BC V7L 0B2, Canada"
Buswell,Anderson,Richmond,26/04/2011,Collisions With Other Vehicles,Nan,Nan,170245,49.163482,-123.133733,"Anderson Rd & Buswell St, Richmond, BC V6Y 1P5, Canada"
Kingsway,Slocan,Vancouver,26/04/2011,Collisions With Other Vehicles,Nan,Nan,178200,49.240041600000005,-123.0539837,"Slocan St & Kingsway, Vancouver, BC V5R 5H1, Canada"
Kootenay,Hastings,Vancouver,26/04/2011,Collisions With Objects,Nan,Nan,177736,49.281120200000004,-123.0256976,"Kootenay St & E Hastings St, Vancouver, BC V5K 2A9, Canada"
Scotia,Broadway,Vancouver,27/04/2011,Collisions With Objects,Nan,Nan,178311,49.2636693,-123.12631780000001,"999 W Broadway, Vancouver, BC V5Z 1K5, Canada"
Denman,Davie,Vancouver,27/04/2011,Collisions With Other Vehicles,Nan,Nan,177734,49.287273,-123.1418124,"Denman St & Davie St, Vancouver, BC V6G, Canada"
Kingsborough,Mckay,Burnaby,27/04/2011,Collisions With Other Vehicles,Nan,Nan,167747,49.227954600000004,-123.0044168,"McKay Ave & Kingsborough St, Burnaby, BC V5H 4M8, Canada"
Nan,Brentwood,Burnaby,28/04/2011,Collisions With Objects,Nan,Nan,177846,49.248321000000004,-123.055908,"Nanaimo Station, Vancouver, BC V5R 1X5, Canada"
3 Ave,Granville,Vancouver,28/04/2011,Collisions With Objects,Nan,Nan,177390,49.2686066,-123.1383979,"3 Granville St, Vancouver, BC V6J, Canada"
Tunnel,Hwy 99,Richmond,28/04/2011,Collisions With Other Vehicles,Nan,Nan,170242,49.3118105,-123.08287490000001,"North Vancouver, BC V7M, Canada"
Main,Broadway,Vancouver,30/04/2011,Collisions With Other Vehicles,Nan,Nan,168528,49.262927399999995,-123.1010848,"Main St & E Broadway, Vancouver, BC V5T 1W2, Canada"
Kingsway,Victoria,Vancouver,30/04/2011,Collisions With People,Nan,Nan,178542,49.245142200000004,-123.06523179999999,"Kingsway & Victoria Dr, Vancouver, BC V5N 2S9, Canada"
Terminal,Station,Vancouver,30/04/2011,Collisions With Objects,Nan,Nan,168684,49.2726501,-123.09858729999999,"Station St & Terminal Ave, Vancouver, BC V6A, Canada"
Pentiction,Broadway,Burnaby,01/05/2011,Collisions With Objects,Nan,Nan,168686,49.262111,-123.05188899999999,"Westbound E Broadway @ Penticton St, Vancouver, BC V5M 4G6, Canada"
Nan,Bridgeport Station,Richmond,01/05/2011,Collisions With Objects,Nan,Nan,167513,49.195532799999995,-123.12605659999998,"Bridgeport Station, Richmond, BC V6X, Canada"
74,107,Surrey,01/05/2011,Collisions With Other Vehicles,Nan,Nan,118488,49.1372102,-122.8033322,"74 Ave, Surrey, BC, Canada"
Alberni,Burrard,Vancouver,02/05/2011,Collisions With Other Vehicles,Nan,Nan,168413,49.284029499999995,-123.12175590000001,"Burrard St & Alberni St, Vancouver, BC V6Z 1X6, Canada"
Bear Creek Park Access Rd,88 Ave,Surrey,02/05/2011,Collisions With Other Vehicles,Nan,Nan,167712,49.1627198,-122.8410098,"88 Ave & Bear Creek Park Access Rd, Surrey, BC V3W 3L1, Canada"
70 Ave,Granville,Vancouver,03/05/2011,Collisions With Other Vehicles,Nan,Nan,168203,49.208540899999996,-123.14061729999999,"Granville St & W 70th Ave, Vancouver, BC V6P 4Z9, Canada"
Columbia,Cedar,New Westminster,04/05/2011,Collisions With Objects,Nan,Nan,168575,49.230265100000004,-122.89274820000001,"E Columbia St & Cedar St, New Westminster, BC V3L 3X6, Canada"
16 Ave,152 St,Surrey,04/05/2011,Collisions With Other Vehicles,Nan,Nan,168777,49.031169299999995,-122.8011601,"16 Ave & 152 St, Surrey, BC V4A, Canada"
Trimble,10 Ave,Vancouver,06/05/2011,Collisions With Objects,Nan,Nan,168421,49.263798,-123.206057,"Trimble St & W 10th Ave, Vancouver, BC V6R 3Z7, Canada"
Nan,Braid Station,New Westminster,06/05/2011,Collisions With Other Vehicles,Nan,Nan,177967,49.233262599999996,-122.8828625,"Braid Station, 81 Braid St, New Westminster, BC V3L, Canada"
Thurlow,Georgia,Vancouver,07/05/2011,Collisions With People,Nan,Nan,169036,49.2857341,-123.12315530000001,"W Georgia St & Thurlow St, Vancouver, BC V6E 0A8, Canada"
Broadway,Commercial,Vancouver,07/05/2011,Collisions With Other Vehicles,Nan,Nan,177745,49.2623855,-123.06976759999999,"Commercial Dr & E Broadway, Vancouver, BC V5N 1W2, Canada"
Nan,8 Av,Surrey,07/05/2011,Collisions With Other Vehicles,Nan,Nan,122445,49.0166892,-122.7603672,"8 Ave, Surrey, BC V3S, Canada"
King Edward,Knight,Vancouver,09/05/2011,Collisions With Other Vehicles,Nan,Nan,168224,49.24847570000001,-123.07604920000001,"Knight St & E King Edward Ave, Vancouver, BC V5N, Canada"
Georgia,Burrard,Vancouver,09/05/2011,Collisions With Objects,Nan,Nan,167760,49.284448,-123.1211287,"Burrard St & W Georgia St, Vancouver, BC V6E 3N9, Canada"
Tatlow,15 St,North Vancouver,10/05/2011,Collisions With Other Vehicles,Nan,Nan,168349,49.32216470000001,-123.1175923,"15th St W & Tatlow Ave, North Vancouver, BC V7P, Canada"
102 Ave,City Parkway,Surrey,10/05/2011,Collisions With Other Vehicles,Nan,Nan,168466,49.187827,-122.84772720000001,"102 Ave & City Pkwy, Surrey, BC V3T 5X3, Canada"
Granville,Broadway,Vancouver,10/05/2011,Collisions With Other Vehicles,Nan,Nan,167870,49.263561100000004,-123.13859679999999,"Granville St & W Broadway, Vancouver, BC V6H 3G7, Canada"
Marine,Garden,North Vancouver,12/05/2011,Collisions With Other Vehicles,Nan,Nan,168347,49.3221225,-123.09719609999999,"Marine Dr, North Vancouver, BC, Canada"
Oak St,Marine Dr,Vancouver,12/05/2011,Collisions With Other Vehicles,Nan,Nan,177251,49.204644200000004,-123.13043130000001,"SW Marine Dr & Oak St, Vancouver, BC V6P, Canada"
Old Yale Rd,Scott Rd,Surrey,12/05/2011,Collisions With Other Vehicles,Nan,Nan,178891,49.1992718,-122.8825872,"Old Yale Rd & Scott Rd, Surrey, BC V3V 4G4, Canada"
Hastings,Richards,Vancouver,12/05/2011,Collisions With Objects,Nan,Nan,178327,49.2840332,-123.1119142,"Richards St & W Hastings St, Vancouver, BC V6B 1L1, Canada"
Nan,Poco Bus Loop,Port Coquitlam,12/05/2011,Collisions With Objects,Nan,Nan,178794,49.2614802,-122.7740672,"Port Coquitlam, 2125 Kingsway Ave, Port Coquitlam, BC V3C 1T2, Canada"
Bay 7,Vtc Yard,Vancouver,13/05/2011,Collisions With Objects,Nan,Nan,167992,49.285355700000004,-123.1194976,"Burrard Stn Bay 7, Vancouver, BC V6C 2Z7, Canada"
7 Ave,20 St,Burnaby,13/05/2011,Collisions With Other Vehicles,Nan,Nan,178897,49.2089303,-122.95611000000001,"7 20th St, Burnaby, BC V3N 1Y9, Canada"
Fairway Dr,Seymour Pkwy,North Vancouver,13/05/2011,Collisions With Objects,Nan,Nan,177595,49.3158685,-122.9573699,"Fairway Dr & Mt Seymour Pkwy, North Vancouver, BC V7G 1C5, Canada"
Dawes Hill,Barnette,Coquitlam,14/05/2011,Collisions With Objects,Nan,Nan,177173,49.278408,-122.81062,"2739 Barnet Hwy, Coquitlam, BC V3E 1K9, Canada"
Bay 13 And 14,Vtc,Vancouver,15/05/2011,Collisions With Other Vehicles,Nan,Nan,179018,49.282729100000005,-123.1207375,"Vancouver, BC, Canada"
71 Ave,Granville,Vancouver,15/05/2011,Collisions With Other Vehicles,Nan,Nan,177370,49.207074600000006,-123.14066310000001,"Granville St & W 71st Ave, Vancouver, BC V6P 5A3, Canada"
12 Ave,Knight,Vancouver,15/05/2011,Collisions With Objects,Nan,Nan,177481,49.188483000000005,-123.07690659999999,"12 Knight St, Richmond, BC V6V 2G4, Canada"
North Rd,Gateanu,Coquitlam,16/05/2011,Collisions With Other Vehicles,Nan,Nan,177273,49.2439834,-122.8909814,"329 North Rd, Coquitlam, BC V3K 3V8, Canada"
Spruce,Smith,Burnaby,16/05/2011,Collisions With Objects,Nan,Nan,178441,49.247004600000004,-123.0198469,"Spruce St & Smith Ave, Burnaby, BC V5G 1X8, Canada"
Nan,Stanley Park Transit Loop,Vancouver,18/05/2011,Collisions With Other Vehicles,Nan,Nan,177714,49.300672,-123.13402990000002,"Stanley Park Loop, Vancouver, BC V6G 3E2, Canada"
147 St,108 Ave,Surrey,18/05/2011,Collisions With Objects,Nan,Nan,177715,49.126345,-122.81493400000001,"147 St, Surrey, BC, Canada"
Hwy 1 Overpass,Main,Vancouver,18/05/2011,Collisions With Other Vehicles,Nan,Nan,120591,49.3325302,-123.11941100000001,"BC-1, Vancouver, BC, Canada"
16 Ave,Main,Vancouver,19/05/2011,Collisions With Objects,Nan,Nan,177607,49.25658,-123.10123590000002,"Main St & E 16th Ave, Vancouver, BC V5T 3G7, Canada"
Carrall,Hastings,Vancouver,19/05/2011,Collisions With Other Vehicles,Nan,Nan,178902,49.281494,-123.10433490000001,"Carrall St & W Hastings St, Vancouver, BC V6A 1M9, Canada"
Cambie,Shell Rd,Richmond,20/05/2011,Collisions With Other Vehicles,Nan,Nan,177488,49.184588899999994,-123.10272520000001,"Shell Rd & Cambie Rd, Richmond, BC V6X, Canada"
Beatrice St,Kingsway,Vancouver,20/05/2011,Collisions With Other Vehicles,Nan,Nan,178901,49.2457321,-123.06650900000001,"Beatrice St & Kingsway, Vancouver, BC V5N 2S9, Canada"
Williams,1 Road,Richmond,20/05/2011,Collisions With Other Vehicles,Nan,Nan,169004,49.141062,-123.181386,"No 1 Rd & Williams Rd, Richmond, BC V7E 1J5, Canada"
Kootenay Loop,Hastings,Burnaby,21/05/2011,Collisions With Other Vehicles,Nan,Nan,169000,49.281120200000004,-123.0256976,"Kootenay St & E Hastings St, Vancouver, BC V5K 2A9, Canada"
Quesnel Dr,King Edward,Vancouver,24/05/2011,Collisions With Other Vehicles,Nan,Nan,169897,49.2498868,-123.1717479,"Quesnel Dr & W King Edward Ave, Vancouver, BC V6L 2X6, Canada"
Metrotown Loop,Metrotown Loop,Burnaby,25/05/2011,Collisions With Objects,Nan,Nan,178092,49.2274141,-122.9999087,"4700 Kingsway, Burnaby, BC V5H 4N2, Canada"
Lougheed,Willingdon,Burnaby,25/05/2011,Collisions With Other Vehicles,Nan,Nan,169001,49.2663512,-123.0032816,"Willingdon Ave & Lougheed Hwy, Burnaby, BC V5C, Canada"
750 W Marine,W Marine,Vancouver,25/05/2011,Collisions With Other Vehicles,Nan,Nan,179014,49.207668700000006,-123.12186559999999,"750 SW Marine Dr, Vancouver, BC V6P 5Y5, Canada"
Track 13/14,Vtc,Vancouver,25/05/2011,Collisions With Objects,Nan,Nan,169045,49.282729100000005,-123.1207375,"Vancouver, BC, Canada"
Pender,Thurlow,Vancouver,26/05/2011,Collisions With Other Vehicles,Nan,Nan,169165,49.2875258,-123.12040640000001,"Thurlow St & W Pender St, Vancouver, BC V7X, Canada"
Oak,Broadway,Vancouver,26/05/2011,Collisions With Other Vehicles,Nan,Nan,167722,49.26335460000001,-123.1266122,"W Broadway & Oak St, Vancouver, BC V6H 1E6, Canada"
4 St,Chatham,Richmond,26/05/2011,Collisions With Other Vehicles,Nan,Nan,123002,49.126421,-123.18576000000002,"Chatham St, Richmond, BC V7E, Canada"
Victoria,Kingsway,Vancouver,26/05/2011,Collisions With Objects,Nan,Nan,167726,49.245142200000004,-123.06523179999999,"Kingsway & Victoria Dr, Vancouver, BC V5N 2S9, Canada"
Clark,Broadway,Vancouver,27/05/2011,Collisions With Other Vehicles,Nan,Nan,167718,49.26242,-123.0774597,"E Broadway & Clark Dr, Vancouver, BC V5N 1V7, Canada"
Blundell,Garden City,Richmond,27/05/2011,Collisions With Other Vehicles,Nan,Nan,169046,49.1554843,-123.1253341,"Blundell Rd & Garden City Rd, Richmond, BC V6Y 1K4, Canada"
Homer,Cordova,Vancouver,28/05/2011,Collisions With Objects,Nan,Nan,122728,49.2840706,-123.109953,"Homer St & W Cordova St, Vancouver, BC V6B 2V2, Canada"
41 Ave,Granville,Vancouver,28/05/2011,Collisions With Objects,Nan,Nan,122729,49.2343405,-123.13962579999999,"Granville St & W 41st Ave, Vancouver, BC V6M 1X7, Canada"
Allison,University,Vancouver,28/05/2011,Collisions With Objects,Nan,Nan,178675,49.2606052,-123.24599380000001,"Vancouver, BC V6T 1Z4, Canada"
22 Ave,Macdonald,Vancouver,28/05/2011,Collisions With Objects,Nan,Nan,168355,49.25280720000001,-123.167796,"W 22nd Ave & Macdonald St, Vancouver, BC V6L 1M5, Canada"
1100 Blk,Beach,Vancouver,29/05/2011,Collisions With Other Vehicles,Nan,Nan,167725,49.2776145,-123.1354282,"1100 Beach Ave, Vancouver, BC V6E 1T8, Canada"
Norman,Dewdney Trunk Rd,Coquitlam,29/05/2011,Collisions With Objects,Nan,Nan,171170,49.2709383,-122.8015432,"Dewdney Trunk Rd & Norman Ave, Coquitlam, BC V3C 4H9, Canada"
Trapp,Marine,Burnaby,30/05/2011,Collisions With Other Vehicles,Nan,Nan,168541,49.1937465,-122.9610688,"Trapp Ave, Burnaby, BC, Canada"
Nan,Scottsdale Exchange,Surrey,30/05/2011,Collisions With Objects,Nan,Nan,168358,49.137597899999996,-122.8880298,"Scottsdale Exchange Bay 3, Surrey, BC V3W, Canada"
54 Ave,Knight St,Vancouver,31/05/2011,Collisions With Other Vehicles,Nan,Nan,177723,49.2204232,-123.07747749999999,"Knight St & E 54th Ave, Vancouver, BC V5P 1Y1, Canada"
Halifax,Willingdon,Burnaby,01/06/2011,Collisions With Other Vehicles,Nan,Nan,168401,49.2680289,-123.00326979999998,"Willingdon Ave & Halifax St, Burnaby, BC V5C 5R3, Canada"
Kingsway,Broadway,Vancouver,01/06/2011,Collisions With Objects,Nan,Nan,168873,49.262719,-123.098055,"Eastbound E Broadway @ Kingsway, Vancouver, BC V5T 4G5, Canada"
Nan,Track 6/7 Btc,Burnaby,01/06/2011,Collisions With Other Vehicles,Nan,Nan,168701,49.2488091,-122.9805104,"Burnaby, BC, Canada"
Nan,Braid Stn Bay #2,Port Coquitlam,01/06/2011,Collisions With Other Vehicles,Nan,Nan,168931,49.23303,-122.88308,"Braid Station @ Bay 2, New Westminster, BC V3L, Canada"
Garage Door 28,Vtc,Vancouver,02/06/2011,Collisions With Objects,Nan,Nan,168699,49.2053706,-123.1335416,"8815 Selkirk St, Vancouver, BC V6P 4J6, Canada"
Ross,Duval,North Vancouver,02/06/2011,Collisions With Objects,Nan,Nan,168941,49.3126708,-123.08360090000001,"221 W Esplanade, North Vancouver, BC V7M 3J3, Canada"
West Blvd,41 Ave,Vancouver,02/06/2011,Collisions With Other Vehicles,Nan,Nan,168089,49.234625,-123.1555635,"West Blvd & W 41st Ave, Vancouver, BC V6M 1Z6, Canada"
40 Ave,Granville,Vancouver,02/06/2011,Collisions With Objects,Nan,Nan,168098,49.2354002,-123.13958659999999,"Granville St & W 40th Ave, Vancouver, BC V6M 1V7, Canada"
Collinwood,41 St,Vancouver,03/06/2011,Collisions With Other Vehicles,Nan,Nan,168205,49.232777399999996,-123.04877990000001,"E 41st Ave, Vancouver, BC, Canada"
31 Ave,Granville,Vancouver,03/06/2011,Collisions With Other Vehicles,Nan,Nan,178058,49.2726148,-123.13314890000001,"Granville Bridge, Granville Bridge, Vancouver, BC V5Y 1V4, Canada"
28 Ave,Granville,Vancouver,03/06/2011,Collisions With Objects,Nan,Nan,168819,49.246495700000004,-123.13917839999999,"Granville St & W 28th Ave, Vancouver, BC V6H 3L6, Canada"
Westwood,Lougheed Hwy,Coquitlam,03/06/2011,Collisions With Other Vehicles,Nan,Nan,167959,49.273560100000005,-122.7904104,"Westwood St & Lougheed Hwy, Port Coquitlam, BC V3B, Canada"
Broadway,Commercial Dr,Vancouver,04/06/2011,Collisions With People,Nan,Nan,123628,49.2623855,-123.06976759999999,"Commercial Dr & E Broadway, Vancouver, BC V5N 1W2, Canada"
49 Ave,Bruce,Vancouver,04/06/2011,Collisions With Objects,Nan,Nan,168204,49.225229,-123.0699541,"E 49th Ave & Bruce St, Vancouver, BC V5P 1T1, Canada"
United Blvd,Golden,Coquitlam,05/06/2011,Collisions With Other Vehicles,Nan,Nan,169056,49.233334,-122.81916609999999,"Golden Dr & United Blvd, Coquitlam, BC V3K, Canada"
Broadway,Macdonald,Vancouver,05/06/2011,Collisions With Other Vehicles,Nan,Nan,168076,49.2640349,-123.1682213,"W Broadway & Macdonald St, Vancouver, BC V6K 2K2, Canada"
Nan,Port Coquitlam Stn,Port Coquitlam,06/06/2011,Collisions With Objects,Nan,Nan,167968,49.2614802,-122.7740672,"Port Coquitlam, 2125 Kingsway Ave, Port Coquitlam, BC V3C 1T2, Canada"
20 St,7 Ave,New Westminster,06/06/2011,Collisions With Other Vehicles,Nan,Nan,168474,49.2015763,-122.94675459999999,"20th St & 7th Ave, New Westminster, BC V3M 4W4, Canada"
Granville,Georgia,Vancouver,07/06/2011,Collisions With Objects,Nan,Nan,167461,49.282489500000004,-123.1181328,"Granville St & W Georgia St, Vancouver, BC V7Y 1K4, Canada"
2 St,8 Ave,New Westminster,07/06/2011,Collisions With Other Vehicles,Nan,Nan,167745,49.2193782,-122.91767639999999,"8th Ave & 2nd St, New Westminster, BC V3L 2M9, Canada"
Seymour,Robson,Vancouver,08/06/2011,Collisions With Objects,Nan,Nan,177843,49.2807267,-123.1188413,"Robson St & Seymour St, Vancouver, BC V6B 2B9, Canada"
62 Ave,144 St,Surrey,08/06/2011,Collisions With Other Vehicles,Nan,Nan,168081,49.1396003,-122.8233821,"144 St, Surrey, BC, Canada"
Nan,Lougheed Stn Loop,Burnaby,08/06/2011,Collisions With Objects,Nan,Nan,177268,49.248520899999995,-122.8969882,"Lougheed Town Centre Station, Burnaby, BC V3J 1S3, Canada"
72 Ave,138 St,Surrey,10/06/2011,Collisions With Other Vehicles,Nan,Nan,177954,49.1335504,-122.838742,"72 Ave & 138 St, Surrey, BC V3W, Canada"
Cresent Rd,King George Blvd,Surrey,10/06/2011,Collisions With Objects,Nan,Nan,177956,49.0674826,-122.8206148,"King George Blvd & Crescent Rd, Surrey, BC V4P, Canada"
Kootenay,Hastings,Vancouver,10/06/2011,Collisions With Objects,Nan,Nan,167945,49.281120200000004,-123.0256976,"Kootenay St & E Hastings St, Vancouver, BC V5K 2A9, Canada"
22 St Station,7 Ave,New Westminster,10/06/2011,Collisions With Other Vehicles,Nan,Nan,167504,49.199633,-122.949901,"22nd St Station @ Bay 7, New Westminster, BC V3M, Canada"
Westminster Hwy,No 3 Rd,Richmond,10/06/2011,Collisions With Other Vehicles,Nan,Nan,177155,49.1702559,-123.13644520000001,"Westminster Hwy & Number 3 Rd, Richmond, BC V6X, Canada"
152 St,16 Ave,Surrey,10/06/2011,Collisions With Objects,Nan,Nan,168943,49.031169299999995,-122.8011601,"16 Ave & 152 St, Surrey, BC V4A, Canada"
Marine Dr,Hudson St,Vancouver,11/06/2011,Collisions With Other Vehicles,Nan,Nan,178066,49.203225200000006,-123.1347894,"SW Marine Dr & Hudson St, Vancouver, BC V6P, Canada"
Laurel,King Edward,Vancouver,13/06/2011,Collisions With Other Vehicles,Nan,Nan,167619,49.249089500000004,-123.12470729999998,"Laurel St & W King Edward Ave, Vancouver, BC V5Z 2E1, Canada"
Surrey Loop Entrance,City Pkwy,Surrey,13/06/2011,Collisions With Other Vehicles,Nan,Nan,130329,49.189383500000005,-122.84782539999999,"10309-10321 City Pkwy, Surrey, BC V3T 4Y8, Canada"
Waterfront Stn,Cordova,Vancouver,14/06/2011,Collisions With Objects,Nan,Nan,178187,49.2859524,-123.1115642,"Waterfront Station, 601 W Cordova St, Vancouver, BC V6B 1G1, Canada"
Grandview Hwy,Clark Dr,Vancouver,14/06/2011,Collisions With Other Vehicles,Nan,Nan,167559,49.2663177,-123.0774223,"N Grandview Hwy & Clark Dr, Vancouver, BC V5N 3G6, Canada"
Seymour,Cordova,Vancouver,14/06/2011,Collisions With Objects,Nan,Nan,167944,49.2853274,-123.1118627,"W Cordova St & Seymour St, Vancouver, BC V6B 0A4, Canada"
191B St,122 Av,Pitt Meadows,15/06/2011,Collisions With Other Vehicles,Nan,Nan,178304,49.2243619,-122.69081429999999,"191b St & 122 Ave, Pitt Meadows, BC V3Y 2E9, Canada"
Broadway,Granville,Vancouver,15/06/2011,Collisions With Other Vehicles,Nan,Nan,178073,49.263561100000004,-123.13859679999999,"Granville St & W Broadway, Vancouver, BC V6H 3G7, Canada"
Smith St,Burrard St,Vancouver,16/06/2011,Collisions With Other Vehicles,Nan,Nan,177274,49.28225379999999,-123.12444640000001,"Burrard St & Smithe St, Vancouver, BC V6Z 2K7, Canada"
24,152,Surrey,17/06/2011,Collisions With Other Vehicles,Nan,Nan,177641,49.1780152,-122.8010101,"24 152 St, Surrey, BC V3R, Canada"
Burrard,Pender,Vancouver,17/06/2011,Collisions With Objects,Nan,Nan,122366,49.2865925,-123.11779299999999,"Burrard St & W Pender St, Vancouver, BC V6C 1M2, Canada"
Ioco Rd,1 Ave,Coquitlam,19/06/2011,Collisions With Objects,Nan,Nan,178510,49.2924753,-122.85263390000001,"Ioco Rd, Port Moody, BC V3H, Canada"
Columbia,Hastings,Vancouver,20/06/2011,Collisions With Objects,Nan,Nan,167776,49.2813885,-123.1022635,"Columbia St & E Hastings St, Vancouver, BC V6A 4J1, Canada"
Granville,10 Ave,Vancouver,21/06/2011,Collisions With Objects,Nan,Nan,177663,49.2626325,-123.13859950000001,"Granville St & W 10th Ave, Vancouver, BC V6H 3G7, Canada"
Prince Edward,Broadway,Vancouver,22/06/2011,Collisions With Other Vehicles,Nan,Nan,168801,49.262834999999995,-123.0965129,"Westbound E Broadway @ Prince Edward St, Vancouver, BC V5T 1W6, Canada"
33 Av,Granville St,Vancouver,23/06/2011,Collisions With Objects,Nan,Nan,177539,49.2418674,-123.1393324,"Granville St & W 33rd Ave, Vancouver, BC V6H 3M2, Canada"
Pasture,Spurway,Coquitlam,23/06/2011,Collisions With Other Vehicles,Nan,Nan,177313,49.283762599999996,-122.7932065,"Coquitlam, BC, Canada"
Bay 1,#3 Rd,Richmond,23/06/2011,Collisions With Other Vehicles,Nan,Nan,178344,49.1665898,-123.133569,"Richmond, BC, Canada"
Lougheed Hwy,Willingdon,Burnaby,23/06/2011,Collisions With Other Vehicles,Nan,Nan,178698,49.2663512,-123.0032816,"Willingdon Ave & Lougheed Hwy, Burnaby, BC V5C, Canada"
Kingsway,Earles,Vancouver,23/06/2011,Collisions With Other Vehicles,Nan,Nan,177761,49.23766989999999,-123.04881699999999,"Earles St & Kingsway, Vancouver, BC V5R 5H4, Canada"
152 St,16 Ave,Surrey,23/06/2011,Collisions With Objects,Nan,Nan,178972,49.031169299999995,-122.8011601,"16 Ave & 152 St, Surrey, BC V4A, Canada"
Nan,Lougheed Mall,Coquitlam,23/06/2011,Collisions With Other Vehicles,Nan,Nan,177393,49.2502266,-122.8958023,"9855 Austin Ave, Burnaby, BC V3J 1N4, Canada"
16 Avenue,Oak,Vancouver,24/06/2011,Collisions With Other Vehicles,Nan,Nan,178718,49.2570806,-123.127241,"W 16th Ave & Oak St, Vancouver, BC V6H 2L4, Canada"
Nan,Surry Central Stn,Surrey,24/06/2011,Collisions With Other Vehicles,Nan,Nan,177205,49.18961289999999,-122.84794840000002,"Surrey Central Station, 14479 106 Ave, Surrey, BC V3R 1S9, Canada"
58(?),Ladner Trunk Rd,Surrey,25/06/2011,Collisions With Objects,Nan,Nan,178836,49.089963899999994,-122.99003020000002,"Ladner Trunk Rd, Delta, BC, Canada"
Nelson,Granville,Vancouver,27/06/2011,Collisions With Other Vehicles,Nan,Nan,177418,49.279274799999996,-123.12302,"Granville St & Nelson St, Vancouver, BC V6Z 2A8, Canada"
Fraser St,49 Ave,Vancouver,28/06/2011,Collisions With Other Vehicles,Nan,Nan,177658,49.225455600000004,-123.0907656,"E 49th Ave & Fraser St, Vancouver, BC V5W 3A6, Canada"
Nan,Onramp To Highway,North Vancouver,29/06/2011,Collisions With Other Vehicles,Nan,Nan,177318,,,
Mountain Hwy,Main St,North Vancouver,30/06/2011,Collisions With Other Vehicles,Nan,Nan,177430,49.305259299999996,-123.03205120000001,"Mountain Hwy & Main St, North Vancouver, BC V7J 1E2, Canada"
Nan,Lions Gate Bridge,North Vancouver,30/06/2011,Collisions With Other Vehicles,Nan,Nan,177322,49.3146651,-123.13920990000001,"Lions Gate Bridge, Lions Gate Bridge Rd, Vancouver, BC, Canada"
14264,60 Ave,Surrey,01/07/2011,Collisions With Objects,Nan,Nan,177209,49.11162720000001,-122.827394,"14264 60 Ave, Surrey, BC V3X 2N5, Canada"
Vtc Yard,Vtc Yard,Vancouver,01/07/2011,Collisions With Other Vehicles,Nan,Nan,178717,49.2019705,-123.1372064,"9149 Hudson St, Vancouver, BC V6P 4N5, Canada"
Cambie,41 Ave,Vancouver,02/07/2011,Collisions With Other Vehicles,Nan,Nan,178340,49.2336097,-123.1160487,"Cambie St & W 41st Ave, Vancouver, BC V5Z, Canada"
Univeristy Blvd,104 Ave,Surrey,03/07/2011,Collisions With Other Vehicles,Nan,Nan,177427,49.191695700000004,-122.85055420000002,"104 Ave & University Dr, Surrey, BC V3T, Canada"
Dunbar,King Edward,Vancouver,04/07/2011,Collisions With Objects,Nan,Nan,126819,49.2501667,-123.1851973,"Dunbar St & W King Edward Ave, Vancouver, BC V6S 2E5, Canada"
Nan,In Yard At Vtc,Vancouver,04/07/2011,Collisions With Objects,Nan,Nan,123806,49.1658836,-123.9400648,"Nanaimo, BC, Canada"
Arbutus,King Edward,Vancouver,05/07/2011,Collisions With Other Vehicles,Nan,Nan,125115,49.2514164,-123.15287079999999,"W King Edward Ave & Arbutus Greenway, Vancouver, BC V6J, Canada"
Robson,Burrard,Vancouver,05/07/2011,Collisions With Other Vehicles,Nan,Nan,177286,49.283297499999996,-123.12280159999999,"Robson St & Burrard St, Vancouver, BC V6E 1A9, Canada"
Angus,Granville,Vancouver,05/07/2011,Collisions With Objects,Nan,Nan,177650,49.2545581,-123.13889440000001,"Granville St & Angus Dr, Vancouver, BC V6H, Canada"
Scott Rd Stn,Scott Rd,Surrey,06/07/2011,Collisions With Other Vehicles,Nan,Nan,178813,49.2044407,-122.8741392,"Scott Road Station, Surrey, BC V3V, Canada"
Wilson,Kingsway,Port Coquitlam,06/07/2011,Collisions With Objects,Nan,Nan,178591,49.260897,-122.77533799999999,"Kingsway Ave & Wilson Ave, Port Coquitlam, BC V3C, Canada"
Gatineau,North Rd,Coquitlam,06/07/2011,Collisions With Objects,Nan,Nan,134995,49.2480532,-122.89290790000001,"North Rd & Gatineau Pl, Burnaby, BC V3J 1S2, Canada"
Phibbs Exchange,Phibbs Exchange,North Vancouver,07/07/2011,Collisions With Other Vehicles,Nan,Nan,174981,49.30514,-123.02831299999998,"Phibbs Exchange, North Vancouver, BC V7J, Canada"
Georgia,Burrard,Vancouver,07/07/2011,Collisions With Objects,Nan,Nan,177300,49.284448,-123.1211287,"Burrard St & W Georgia St, Vancouver, BC V6E 3N9, Canada"
Burrard,Pender,Vancouver,07/07/2011,Collisions With Objects,Nan,Nan,178610,49.2865925,-123.11779299999999,"Burrard St & W Pender St, Vancouver, BC V6C 1M2, Canada"
Dunbar,41 Ave ,Vancouver,07/07/2011,Collisions With Other Vehicles,Nan,Nan,177245,49.234772899999996,-123.1852952,"Dunbar St & W 41st Ave, Vancouver, BC V6N 3E7, Canada"
Fir,16 Avenue,Vancouver,08/07/2011,Collisions With Other Vehicles,Nan,Nan,178367,49.2570907,-123.1412623,"W 16th Ave & Fir St, Vancouver, BC V6J 3C6, Canada"
Nan,Nan,Burnaby,08/07/2011,Collisions With Objects,Nan,Nan,177465,49.223456799999994,-122.986291,"5368 Grimmer St, Burnaby, BC V5H 2H2, Canada"
Highway 99,Highway 17,Delta,08/07/2011,Collisions With Other Vehicles,Nan,Nan,178828,49.09521289999999,-123.0264619,"BC-99, Delta, BC, Canada"
Marine Dr,Cambie,Vancouver,08/07/2011,Collisions With Other Vehicles,Nan,Nan,178820,49.210238200000006,-123.11712879999999,"Cambie St & SW Marine Dr, Vancouver, BC V6P, Canada"
Cochrane,North Rd,Coquitlam,09/07/2011,Collisions With Other Vehicles,Nan,Nan,178710,49.2520066,-122.89283119999999,"Cochrane Ave & North Rd, Coquitlam, BC V3J 7W5, Canada"
7 Avenue,Main,Vancouver,09/07/2011,Collisions With Other Vehicles,Nan,Nan,178398,49.2646204,-123.1009915,"Main St & E 7th Ave, Vancouver, BC V5T, Canada"
Nan,Carnarvon,New Westminster,09/07/2011,Collisions With Objects,Nan,Nan,177931,49.20397379999999,-122.90913529999999,"Carnarvon St, New Westminster, BC, Canada"
2100 Blk,7 St,New Westminster,10/07/2011,Collisions With Other Vehicles,Nan,Nan,177930,49.2083028,-122.9167402,"Seventh St, New Westminster, BC, Canada"
Bond,Willingdon,Burnaby,10/07/2011,Collisions With Objects,Nan,Nan,177919,49.2353951,-123.0034,"Bond St & Willingdon Ave, Burnaby, BC V5H 2T3, Canada"
Nan,Parkway Blvd,Coquitlam,11/07/2011,Collisions With Other Vehicles,Nan,Nan,178590,49.2962581,-122.80339679999999,"1410 Parkway Blvd, Coquitlam, BC V3E 3S7, Canada"
Nan,Dunbar Loop,Vancouver,11/07/2011,Collisions With Other Vehicles,Nan,Nan,177469,49.2347765,-123.1853515,"Dunbar Loop, Vancouver, BC V6N 1W5, Canada"
Kootenay Loop,Kootenay Loop,Vancouver,11/07/2011,Collisions With Objects,Nan,Nan,177468,49.281382,-123.026348,"Kootenay Loop Bay 5, Vancouver, BC V5K, Canada"
8 Ave,Granville,Vancouver,11/07/2011,Collisions With Other Vehicles,Nan,Nan,174738,49.2644931,-123.138573,"Granville St & W 8th Ave, Vancouver, BC V6J 4R8, Canada"
Nicola,Robson,Vancouver,12/07/2011,Collisions With People,Nan,Nan,177900,49.288684,-123.1311,"Robson St & Nicola St, Vancouver, BC V6G 1C3, Canada"
Georgia,Richards,Vancouver,12/07/2011,Collisions With Other Vehicles,Nan,Nan,178010,49.2812323,-123.11616950000001,"W Georgia St & Richards St, Vancouver, BC V6B 3A6, Canada"
 ,Hwy 99 Wb,Delta,12/07/2011,Collisions With Other Vehicles,Nan,Nan,174746,49.09521289999999,-123.0264619,"BC-99, Delta, BC, Canada"
Track 2,Btc Yard,Burnaby,13/07/2011,Collisions With Other Vehicles,Nan,Nan,177915,49.2488091,-122.9805104,"Burnaby, BC, Canada"
Georgia,Cambie,Vancouver,13/07/2011,Collisions With Objects,Nan,Nan,178014,49.2793345,-123.11325959999999,"W Georgia St & Cambie St, Vancouver, BC V6B 4P4, Canada"
Dunsmuir,Burrard,Vancouver,13/07/2011,Collisions With Objects,Nan,Nan,173679,49.28554570000001,-123.11939540000002,"Burrard St & Dunsmuir St, Vancouver, BC V6C, Canada"
Gore,Hastings,Vancouver,13/07/2011,Collisions With People,Nan,Nan,177632,49.2812985,-123.09747620000002,"Gore Ave & E Hastings St, Vancouver, BC V6A 2Z4, Canada"
Langley Center,Langley Center,Langley,13/07/2011,Collisions With Other Vehicles,Nan,Nan,177633,49.106346,-122.65449199999999,"Langley Centre @ Bay 4, Langley City, BC V3A 4L9, Canada"
57,Ladner Trunk Rd,Langley,13/07/2011,Collisions With Other Vehicles,Nan,Nan,178358,49.090161200000004,-123.06526720000001,"Ladner Trunk Rd & 57 St, Delta, BC V4K, Canada"
Kootenay,Hastings,Vancouver,13/07/2011,Collisions With Objects,Nan,Nan,121202,49.281120200000004,-123.0256976,"Kootenay St & E Hastings St, Vancouver, BC V5K 2A9, Canada"
Rtc Flush Bay,Rtc Flush Bay,Richmond,14/07/2011,Collisions With Other Vehicles,Nan,Nan,178109,49.164153000000006,-123.14711899999999,"6820 Gilbert Rd, Richmond, BC V7C 3V4, Canada"
152 Street,16 Avenue,White Rock,14/07/2011,Collisions With Objects,Nan,Nan,177899,49.031169299999995,-122.8011601,"16 Ave & 152 St, Surrey, BC V4A, Canada"
12 Avenue,Knight,Vancouver,14/07/2011,Collisions With Objects,Nan,Nan,177908,49.188483000000005,-123.07690659999999,"12 Knight St, Richmond, BC V6V 2G4, Canada"
Nan,Lions Gate Bridge S/B,North Vancouver,15/07/2011,Collisions With Other Vehicles,Nan,Nan,177579,49.3146651,-123.13920990000001,"Lions Gate Bridge, Lions Gate Bridge Rd, Vancouver, BC, Canada"
Bay #1,Stanley Park Loop,Vancouver,17/07/2011,Collisions With Other Vehicles,Nan,Nan,178518,49.300672,-123.13402990000002,"Stanley Park Loop, Vancouver, BC V6G 3E2, Canada"
Davie,Seymour,Vancouver,17/07/2011,Collisions With Objects,Nan,Nan,178404,49.2765225,-123.1252085,"Davie St & Seymour St, Vancouver, BC V6B 3N3, Canada"
17 St,8 Ave,New Westminster,18/07/2011,Collisions With Other Vehicles,Nan,Nan,177231,49.2214947,-122.91384640000001,"17 8th Ave, New Westminster, BC V3L 1X5, Canada"
Renfrew,Hastings,Vancouver,18/07/2011,Collisions With Other Vehicles,Nan,Nan,177996,49.281079600000005,-123.0441015,"Renfrew St & E Hastings St, Vancouver, BC V5K 5C5, Canada"
49,Main,Vancouver,19/07/2011,Collisions With Other Vehicles,Nan,Nan,177999,49.2845596,-123.09919170000002,"49 Main St, Vancouver, BC V6A, Canada"
Yew St,41 Av,Vancouver,19/07/2011,Collisions With Other Vehicles,Nan,Nan,177770,49.234623,-123.15853700000001,"Yew St & W 41st Ave, Vancouver, BC V6M, Canada"
Hastings Street,Main Street,Vancouver,20/07/2011,Collisions With Objects,Nan,Nan,173785,49.2813379,-123.09965009999999,"Main St & E Hastings St, Vancouver, BC V6A 2T7, Canada"
Pipeline Rd,West Stanley Park Dr,Vancouver,22/07/2011,Collisions With Other Vehicles,Nan,Nan,178005,49.2998862,-123.13401640000001,"610 Pipeline Rd, Vancouver, BC V6G 1Z4, Canada"
Belnheim,41 Ave,Vancouver,22/07/2011,Collisions With Other Vehicles,Nan,Nan,122034,49.234747,-123.178722,"Blenheim St & W 41st Ave, Vancouver, BC V6N 1P8, Canada"
Bernatchey ,Brunette ,Coquitlam,24/07/2011,Collisions With Objects,Nan,Nan,177339,49.235360799999995,-122.8757989,"Brunette Ave & Bernatchey St, Coquitlam, BC V3K, Canada"
Seymour,Davie,Vancouver,24/07/2011,Collisions With Objects,Nan,Nan,177823,49.2765225,-123.1252085,"Davie St & Seymour St, Vancouver, BC V6B 3N3, Canada"
Jacomb,Cambie,Richmond,24/07/2011,Collisions With Other Vehicles,Nan,Nan,178153,49.2741786,-123.1242494,"1286 Homer St #400, Vancouver, BC V6B 2Y5, Canada"
Off Ramp,Marine Dr,Vancouver,25/07/2011,Collisions With Other Vehicles,Nan,Nan,178002,49.210846000000004,-123.075497,"Northbound Knight St Bridge Offramp @ SE Marine Dr, Vancouver, BC V5P, Canada"
Yukon,Marine Dr,Vancouver,25/07/2011,Collisions With Objects,Nan,Nan,178150,49.210961,-123.1153397,"SW Marine Dr & Yukon St, Vancouver, BC V5X 2R9, Canada"
Metrotown Loop,Metrotown Loop,Burnaby,25/07/2011,Collisions With Other Vehicles,Nan,Nan,177225,49.2274141,-122.9999087,"4700 Kingsway, Burnaby, BC V5H 4N2, Canada"
108 Ave,137A St,Surrey,25/07/2011,Collisions With Other Vehicles,Nan,Nan,177439,49.1988055,-122.8409415,"13768 108 Ave, Surrey, BC V3T 0L9, Canada"
Unloading Zone,22 St Station,New Westminster,26/07/2011,Collisions With Other Vehicles,Nan,Nan,178410,49.1999652,-122.949048,"22nd Street, 649 22nd St, New Westminster, BC V3M, Canada"
Tr #1,Vancouver Garage,Vancouver,26/07/2011,Collisions With Objects,Nan,Nan,178030,49.289031,-123.11641329999999,"1085 Canada Pl, Vancouver, BC V6C 0C6, Canada"
Slocan,22 Ave,Vancouver,27/07/2011,Collisions With Other Vehicles,Nan,Nan,123293,49.250611,-123.04962079999999,"Slocan St & E 22nd Ave, Vancouver, BC V5M, Canada"
East Blvd,41,Vancouver,27/07/2011,Collisions With Other Vehicles,Nan,Nan,177558,49.2526083,-123.15254240000002,"41 East Blvd, Vancouver, BC V6J 4B1, Canada"
Stanley Park Loop,Stanley Park Loop,Vancouver,28/07/2011,Collisions With Other Vehicles,Nan,Nan,173792,49.300672,-123.13402990000002,"Stanley Park Loop, Vancouver, BC V6G 3E2, Canada"
72 Avenue,Granville St,Vancouver,28/07/2011,Collisions With Other Vehicles,Nan,Nan,177336,49.271561,-123.1344913,"72 Granville St, Vancouver, BC V6H, Canada"
Angus Dr,Granville,Vancouver,28/07/2011,Collisions With Objects,Nan,Nan,178026,49.2545581,-123.13889440000001,"Granville St & Angus Dr, Vancouver, BC V6H, Canada"
Brunswick,Broadway,Vancouver,29/07/2011,Collisions With Other Vehicles,Nan,Nan,178333,49.2642679,-123.09615120000001,"Guelph Park, 2390 Brunswick St, Vancouver, BC V5T 3L8, Canada"
32 Ave,Granville,Vancouver,29/07/2011,Collisions With Objects,Nan,Nan,174019,49.2436718,-123.1392696,"Granville St & W 32nd Ave, Vancouver, BC V6J 3A5, Canada"
20 Ave,Dunbar,Nan,30/07/2011,Collisions With Objects,Nan,Nan,177911,49.254668,-123.185147,"Dunbar St & W 20th Ave, Vancouver, BC V6S 2C6, Canada"
Nan,Stanley Park Loop,Vancouver,31/07/2011,Collisions With Objects,Nan,Nan,178134,49.300672,-123.13402990000002,"Stanley Park Loop, Vancouver, BC V6G 3E2, Canada"
Gilley,Marine Dr,Burnaby,31/07/2011,Collisions With Objects,Nan,Nan,178024,49.2054383,-122.9783193,"Marine Dr & Gilley Ave, Burnaby, BC V5J 0A9, Canada"
Davie,Howe,Vancouver,01/08/2011,Collisions With Other Vehicles,Nan,Nan,178023,49.277807,-123.1272001,"Davie St & Howe St, Vancouver, BC V6Z 0A8, Canada"
33 Ave,Oak St,Vancouver,01/08/2011,Collisions With Objects,Nan,Nan,174018,49.241440399999995,-123.1278087,"W 33rd Ave & Oak St, Vancouver, BC V5Z 2K6, Canada"
Vtc Garage,Vtc Garage,Vancouver,02/08/2011,Collisions With Objects,Nan,Nan,177707,49.282729100000005,-123.1207375,"Vancouver, BC, Canada"
Marpole,Granville,Vancouver,02/08/2011,Collisions With Objects,Nan,Nan,173192,49.2570659,-123.1388013,"Granville St & Marpole Ave, Vancouver, BC V6H 1S5, Canada"
22,20,New Westminster,03/08/2011,Collisions With Other Vehicles,Nan,Nan,173313,49.2136982,-122.8975842,"22 E Royal Ave, New Westminster, BC V3L 5R3, Canada"
Marine Dr,Fraserview,Vancouver,03/08/2011,Collisions With Objects,Nan,Nan,177864,49.208876399999994,-123.0635632,"SE Marine Dr, Vancouver, BC, Canada"
41 Avenue,Blenheim St,Vancouver,03/08/2011,Collisions With Objects,Nan,Nan,173428,49.234747,-123.178722,"Blenheim St & W 41st Ave, Vancouver, BC V6N 1P8, Canada"
Ladner Trunk Road,Harvest Drive,Delta,03/08/2011,Collisions With Other Vehicles,Nan,Nan,177818,49.0901399,-123.0630726,"Ladner Trunk Rd & Harvest Dr, Delta, BC V4K 1X6, Canada"
Coquitlam Station,Coquitlam Station,Coquitlam,03/08/2011,Collisions With Objects,Nan,Nan,178858,49.2795306,-122.79815409999999,"2929 Barnet Hwy, Coquitlam, BC V3B 5R5, Canada"
Hemlock,Broadway,Vancouver,04/08/2011,Collisions With Other Vehicles,Nan,Nan,177709,49.263524200000006,-123.13613899999999,"W Broadway & Hemlock St, Vancouver, BC V6H 1H4, Canada"
Fraser,Broadway,Vancouver,04/08/2011,Collisions With Other Vehicles,Nan,Nan,170425,49.2625311,-123.08911699999999,"E Broadway & Fraser St, Vancouver, BC V5T 1X7, Canada"
27 Avenue,Granville,Vancouver,04/08/2011,Collisions With Other Vehicles,Nan,Nan,177861,49.2195148,-123.14032649999999,"27 Granville St, Vancouver, BC V6P 4X6, Canada"
6 Avenue,8 Street,New Westminster,05/08/2011,Collisions With Objects,Nan,Nan,173425,49.211176,-122.92400990000002,"6th Ave & 8th St, New Westminster, BC V3M 3S2, Canada"
Burrard,Broadway,Vancouver,05/08/2011,Collisions With Other Vehicles,Nan,Nan,174978,49.2636624,-123.1457478,"Burrard St & W Broadway, Vancouver, BC V6J 1Y1, Canada"
Davie St,Howe St,Vancouver,06/08/2011,Collisions With Other Vehicles,Nan,Nan,177686,49.277807,-123.1272001,"Davie St & Howe St, Vancouver, BC V6Z 0A8, Canada"
Boundary Rd,Canada Way,Vancouver,06/08/2011,Collisions With Other Vehicles,Nan,Nan,177750,49.2547509,-123.0235095,"Canada Way & Boundary Rd, Burnaby, BC V5M, Canada"
Seymour,Hastings,Vancouver,08/08/2011,Collisions With Objects,Nan,Nan,177804,49.2846693,-123.1128815,"W Hastings St & Seymour St, Vancouver, BC V6B 1L6, Canada"
Canada Way,Willingdon,Burnaby,08/08/2011,Collisions With Other Vehicles,Nan,Nan,178052,49.254584200000004,-123.00424369999999,"Willingdon Ave & Canada Way, Burnaby, BC V5G, Canada"
1 St,1 Av,Port Moody,08/08/2011,Collisions With Other Vehicles,Nan,Nan,114973,49.3035013,-122.87343159999999,"1st St & 1st Ave, Port Moody, BC V3H 3A9, Canada"
152 St,16 Av,Surrey,09/08/2011,Collisions With Objects,Nan,Nan,173324,49.031169299999995,-122.8011601,"16 Ave & 152 St, Surrey, BC V4A, Canada"
Yew,Cornwall,Vancouver,09/08/2011,Collisions With Objects,Nan,Nan,178951,49.272580600000005,-123.1549761,"Yew St & Cornwall Ave, Vancouver, BC V6K 3E4, Canada"
Buchanan,Willingdon,Burnaby,10/08/2011,Collisions With Objects,Nan,Nan,177806,49.267442100000004,-123.0032815,"Willingdon Ave & Buchanan St, Burnaby, BC V5C 5J3, Canada"
16,Edmonds,Burnaby,11/08/2011,Collisions With Objects,Nan,Nan,177452,49.217057200000006,-122.9536072,"Edmonds St & 16th St, Burnaby, BC V3N 1A4, Canada"
Gage Rd,Bridgeport,Richmond,12/08/2011,Collisions With Other Vehicles,Nan,Nan,125389,49.1920662,-123.1202394,"Gage Rd & Bridgeport Rd, Richmond, BC V6X 3L9, Canada"
Richards,Pender,Vancouver,12/08/2011,Collisions With Objects,Nan,Nan,178501,49.283396,-123.11288090000001,"Richards St & W Pender St, Vancouver, BC V6B 3A2, Canada"
12 Av,Main St,Vancouver,13/08/2011,Collisions With Other Vehicles,Nan,Nan,178490,49.2601544,-123.1010001,"Main St & E 12th Ave, Vancouver, BC V5T 3G2, Canada"
Surrey Central,Surrey Central,Surrey,13/08/2011,Collisions With Objects,Nan,Nan,177985,49.1894304,-122.8483981,"Surrey Central Station Bay 11, Surrey, BC V3T, Canada"
Metrotown Loop,Metrotown Loop,Burnaby,13/08/2011,Collisions With Other Vehicles,Nan,Nan,173561,49.2274141,-122.9999087,"4700 Kingsway, Burnaby, BC V5H 4N2, Canada"
Nan,Brentwood Stn,Burnaby,14/08/2011,Collisions With Other Vehicles,Nan,Nan,174412,49.266396,-123.001829,"Brentwood Town Centre Station, Burnaby, BC V5C, Canada"
Joyce Bus Loop,Vanness Av,Vancouver,14/08/2011,Collisions With Other Vehicles,Nan,Nan,178982,49.237786,-123.03057690000001,"Joyce Station @ Bay 2, Vancouver, BC V5R, Canada"
Steveston Off Ramp,Highway 99,Richmond,14/08/2011,Collisions With Objects,2001.0,Obi,134947,49.133055999999996,-123.08433600000001,"Northbound Hwy 99 Offramp @ Steveston Hwy, Richmond, BC V6W 1A3, Canada"
Cambie,Hastings,Vancouver,15/08/2011,Collisions With Other Vehicles,Nan,Nan,178055,49.282540600000004,-123.10957379999999,"Cambie St & W Hastings St, Vancouver, BC V6B 2N4, Canada"
191 B Street,122 Avenue,Pitt Meadows,15/08/2011,Collisions With Other Vehicles,Nan,Nan,178172,49.2243619,-122.69081429999999,"191b St & 122 Ave, Pitt Meadows, BC V3Y 2E9, Canada"
Surrey Central Loop,Surrey Central Loop,Surrey,15/08/2011,Collisions With Objects,Nan,Nan,174133,49.189383500000005,-122.84782539999999,"10309-10321 City Pkwy, Surrey, BC V3T 4Y8, Canada"
South Fence,Surrey Central Loop,Surrey,15/08/2011,Collisions With Other Vehicles,Nan,Nan,173564,49.0721037,-122.8218102,"King George Blvd, Surrey, BC V3T 5H9, Canada"
Borke Mtn Rd,Victoria Dr,Port Coquitlam,16/08/2011,Collisions With Other Vehicles,Nan,Nan,132569,49.285730900000004,-122.7448608,"Victoria Dr, Port Coquitlam, BC, Canada"
Vtc Lot,Vtc Lot,Vancouver,16/08/2011,Collisions With Other Vehicles,Nan,Nan,178384,49.2019705,-123.1372064,"9149 Hudson St, Vancouver, BC V6P 4N5, Canada"
1St Pole At Track #1,Vtc Yard,Vancouver,16/08/2011,Collisions With Objects,Nan,Nan,178485,49.304258399999995,-123.14425220000001,"Stanley Park, Vancouver, BC V6G 1Z4, Canada"
Angus Dr,Granville,Vancouver,17/08/2011,Collisions With Objects,Nan,Nan,174368,49.2545581,-123.13889440000001,"Granville St & Angus Dr, Vancouver, BC V6H, Canada"
Union,Main St,Vancouver,17/08/2011,Collisions With Other Vehicles,Nan,Nan,173914,49.2776756,-123.0999003,"Main St & Union St, Vancouver, BC V6A, Canada"
Nan,Granville St,Vancouver,17/08/2011,Collisions With Objects,Nan,Nan,177582,49.2863435,-123.1159795,"Canada, British Columbia, Vancouver, CA BC Vancouver #514 - 850 Hastings Street W: V6C 1E1"
Bewicke,Marine Dr,North Vancouver,18/08/2011,Collisions With Other Vehicles,Nan,Nan,177698,49.3200626,-123.09143519999999,"Marine Dr & Bewicke Ave, North Vancouver, BC V7M 0E7, Canada"
Denman,Davie,Vancouver,18/08/2011,Collisions With Other Vehicles,Nan,Nan,174365,49.287273,-123.1418124,"Denman St & Davie St, Vancouver, BC V6G, Canada"
Sw Marine Drive,Oak Street,Vancouver,19/08/2011,Collisions With Other Vehicles,Nan,Nan,178381,49.204644200000004,-123.13043130000001,"SW Marine Dr & Oak St, Vancouver, BC V6P, Canada"
Ubc Bay 12,Ubc Bay 12,Vancouver,19/08/2011,Collisions With Other Vehicles,Nan,Nan,178530,49.2660565,-123.24709229999999,"University Blvd, Vancouver, BC V6T 2B9, Canada"
E 29 Av,Nootka St,Vancouver,19/08/2011,Collisions With Other Vehicles,Nan,Nan,174030,49.2445468,-123.04218159999999,"E 29th Ave & Nootka St, Vancouver, BC V5R 1V7, Canada"
72 Avenue,Granville,Vancouver,20/08/2011,Collisions With Other Vehicles,Nan,Nan,115380,49.271561,-123.1344913,"72 Granville St, Vancouver, BC V6H, Canada"
Davie,Howe,Vancouver,20/08/2011,Collisions With Other Vehicles,Nan,Nan,178988,49.277807,-123.1272001,"Davie St & Howe St, Vancouver, BC V6Z 0A8, Canada"
Nan,Stanley Park Bus Loop,Vancouver,21/08/2011,Collisions With Other Vehicles,Nan,Nan,177183,49.304258399999995,-123.14425220000001,"Stanley Park, Vancouver, BC V6G 1Z4, Canada"
W Blvd,49 Ave,Vancouver,21/08/2011,Collisions With Other Vehicles,Nan,Nan,178271,49.227140999999996,-123.155166,"West Blvd & W 49th Ave, Vancouver, BC V6P 5S4, Canada"
Nan,8262 Joffery,Burnaby,23/08/2011,Collisions With Other Vehicles,Nan,Nan,174149,49.1658836,-123.9400648,"Nanaimo, BC, Canada"
Nan,Vtc Yard,Vancouver,23/08/2011,Collisions With Objects,Nan,Nan,174028,49.282729100000005,-123.1207375,"Vancouver, BC, Canada"
Nan,Poco Stn Bus Loop,Port Coquitlam,24/08/2011,Collisions With Other Vehicles,Nan,Nan,178924,49.2614802,-122.7740672,"Port Coquitlam, 2125 Kingsway Ave, Port Coquitlam, BC V3C 1T2, Canada"
Nicola,Pender,Vancouver,25/08/2011,Collisions With Other Vehicles,Nan,Nan,174379,49.2866999,-123.1341111,"Nicola St, Vancouver, BC V6G, Canada"
Garden City,Cambie,Richmond,26/08/2011,Collisions With Other Vehicles,Nan,Nan,178928,49.1846685,-123.1244014,"Cambie Rd & Garden City Rd, Richmond, BC V6X 3N5, Canada"
Buena Vista Ave,Oxford St,White Rock,27/08/2011,Collisions With Other Vehicles,Nan,Nan,174498,49.023917,-122.81216,"Oxford St & Buena Vista Ave, White Rock, BC V4B 3P6, Canada"
Denman,Davie,Vancouver,27/08/2011,Collisions With Other Vehicles,Nan,Nan,174377,49.287273,-123.1418124,"Denman St & Davie St, Vancouver, BC V6G, Canada"
Granville,Pender,Vancouver,27/08/2011,Collisions With Other Vehicles,Nan,Nan,177702,49.2846675,-123.114861,"Granville St & W Pender St, Vancouver, BC V6C 1X6, Canada"
Chatham,No 2 Rd,Richmond,27/08/2011,Collisions With Other Vehicles,Nan,Nan,177928,49.126421,-123.18576000000002,"Chatham St, Richmond, BC V7E, Canada"
22 St,7 Ave,Burnaby,29/08/2011,Collisions With Other Vehicles,Nan,Nan,174385,49.1999652,-122.949048,"22nd Street, 649 22nd St, New Westminster, BC V3M, Canada"
Richmond,Jamieson,New Westminster,30/08/2011,Collisions With Other Vehicles,Nan,Nan,174613,49.2167739,-122.8956886,"Richmond St & Jamieson Ct, New Westminster, BC V3L 5P9, Canada"
Nan,Coquitlam Stn,Coquitlam,30/08/2011,Collisions With Objects,Nan,Nan,177353,49.2614802,-122.7740672,"Port Coquitlam, 2125 Kingsway Ave, Port Coquitlam, BC V3C 1T2, Canada"
B/W 38Th & 37Th,Oak,Vancouver,31/08/2011,Collisions With Other Vehicles,Nan,Nan,177351,49.2376615,-123.1279267,"W 37th Ave & Oak St, Vancouver, BC V5Z, Canada"
Mary Hill Rd,Wilson Rd,Port Coquitlam,31/08/2011,Collisions With Other Vehicles,Nan,Nan,178952,49.2608946,-122.7785152,"Wilson Ave & Mary Hill Rd, Port Coquitlam, BC V3C, Canada"
Nan,Surrey Central Station Loop,Surrey,31/08/2011,Collisions With Other Vehicles,Nan,Nan,174890,49.18961289999999,-122.84794840000002,"Surrey Central Station, 14479 106 Ave, Surrey, BC V3R 1S9, Canada"
Broadway,Kingsway,Vancouver,01/09/2011,Collisions With Objects,Nan,Nan,174516,49.2628749,-123.099607,"E Broadway & Kingsway, Vancouver, BC V5T, Canada"
Nan,Rtc Maintance Facility,Richmond,01/09/2011,Collisions With Objects,Nan,Nan,174394,49.1665898,-123.133569,"Richmond, BC, Canada"
Electronic,Murray,Port Moody,01/09/2011,Collisions With Other Vehicles,Nan,Nan,178394,49.278841,-122.8413882,"Electronic Ave & Murray St, Port Moody, BC V3H 1X2, Canada"
Nan,Newton Exchange,Surrey,02/09/2011,Collisions With Other Vehicles,Nan,Nan,174891,49.133425,-122.8416405,"Newton Exchange Bay 8, Surrey, BC V3W 2P4, Canada"
Gilley,Marine,Vancouver,05/09/2011,Collisions With Objects,Nan,Nan,173238,49.282729100000005,-123.1207375,"Vancouver, BC, Canada"
Railroad Crossing,River,Surrey,05/09/2011,Collisions With Objects,Nan,Nan,174775,49.1913466,-122.8490125,"Surrey, BC, Canada"
Robson,Granville,Vancouver,06/09/2011,Collisions With Other Vehicles,Nan,Nan,173822,49.2813649,-123.1198429,"Robson St & Granville St, Vancouver, BC V6Z 1A1, Canada"
Venables,Renfrew,Vancouver,07/09/2011,Collisions With Other Vehicles,Nan,Nan,173119,49.276619399999994,-123.0441034,"Renfrew St & Venables St, Vancouver, BC V5K 4B6, Canada"
Boundary,Kincaid,Vancouver,08/09/2011,Collisions With Objects,Nan,Nan,173121,49.248857799999996,-123.02385690000001,"Kincaid St & Boundary Rd, Vancouver, BC V5R 2M4, Canada"
Highbury,Broadway,Vancouver,09/09/2011,Collisions With Other Vehicles,Nan,Nan,173470,49.2644116,-123.18780430000001,"W Broadway & Highbury St, Vancouver, BC V6R 2C2, Canada"
University Blvd,Westbrook Mall,Vancouver,09/09/2011,Collisions With Other Vehicles,Nan,Nan,173219,49.266359200000004,-123.24542079999999,"University Blvd & Wesbrook Mall, University Endowment Lands, BC V6T, Canada"
Dunbar Loop,Dunbar Loop,Vancouver,10/09/2011,Collisions With Other Vehicles,Nan,Nan,174531,49.234593,-123.18575009999999,"Dunbar St @ Dunbar Loop, Vancouver, BC V6N, Canada"
Hamilton,Pender,Vancouver,10/09/2011,Collisions With Objects,Nan,Nan,173128,49.282136799999996,-123.11095120000002,"W Pender St & Hamilton St, Vancouver, BC V6B 1T1, Canada"
Ioco Rd,Ungless Dr,Port Moody,10/09/2011,Collisions With Other Vehicles,Nan,Nan,173108,49.284180299999996,-122.82832900000001,"Ungless Way & Ioco Rd, Port Moody, BC V3H, Canada"
Ioco Rd,Ungless Dr,Port Moody,10/09/2011,Collisions With Other Vehicles,Nan,Nan,173109,49.284180299999996,-122.82832900000001,"Ungless Way & Ioco Rd, Port Moody, BC V3H, Canada"
Coquitlam Station,Coquitlam Station,Coquitlam,10/09/2011,Collisions With Objects,Nan,Nan,173816,49.2795306,-122.79815409999999,"2929 Barnet Hwy, Coquitlam, BC V3B 5R5, Canada"
Arbutus,Broadway,Nan,10/09/2011,Collisions With Objects,Nan,Nan,173358,49.263642,-123.15487150000001,"2184 W Broadway #390, Vancouver, BC V6K 2E1, Canada"
16 Ave,Granville,Vancouver,12/09/2011,Collisions With Other Vehicles,Nan,Nan,173477,49.2570659,-123.1388013,"Granville St & W 16th Ave, Vancouver, BC V6H 1S5, Canada"
176 St,64 Ave,Surrey,12/09/2011,Collisions With Other Vehicles,Nan,Nan,174797,49.11872520000001,-122.73493300000001,"176 St & 64 Ave, Surrey, BC V3S, Canada"
Nan,Btc Shop,Burnaby,12/09/2011,Collisions With Objects,Nan,Nan,173131,49.2274141,-122.9999087,"4700 Kingsway, Burnaby, BC V5H 4N2, Canada"
Broadway,Renfrew,Vancouver,13/09/2011,Collisions With Other Vehicles,Nan,Nan,173479,49.2620054,-123.04441740000001,"Renfrew St & E Broadway, Vancouver, BC V5M 1Y9, Canada"
Ontario,Broadway,Vancouver,13/09/2011,Collisions With Other Vehicles,Nan,Nan,170525,49.2630088,-123.10488899999999,"W Broadway & Ontario St, Vancouver, BC V5Y 1P1, Canada"
156 St,Fraser Hwy,Surrey,14/09/2011,Collisions With Other Vehicles,Nan,Nan,174600,49.161666499999995,-122.7902688,"Fraser Hwy & 156 St, Surrey, BC V3S 2V9, Canada"
Nan,Robson,Richmond,14/09/2011,Collisions With Other Vehicles,Nan,Nan,174919,49.1665898,-123.133569,"Richmond, BC, Canada"
Surrey Central Bus Loop,University Dr,Surrey,15/09/2011,Collisions With Other Vehicles,Nan,Nan,174686,49.18885,-122.84936100000002,"Surrey Central Station Bay 4, Surrey, BC V3T, Canada"
Clarendon,41 Avenue,Vancouver,15/09/2011,Collisions With Other Vehicles,Nan,Nan,174769,49.2328276,-123.0554067,"Clarendon St & E 41st Ave, Vancouver, BC V5R 5V8, Canada"
8 St,6 Av,New Westminster,16/09/2011,Collisions With Other Vehicles,Nan,Nan,174791,49.211176,-122.92400990000002,"6th Ave & 8th St, New Westminster, BC V3M 3S2, Canada"
B/W Georgia & Dunsmuir,Cambie,Vancouver,16/09/2011,Collisions With Objects,Nan,Nan,174207,49.2792104,-123.1136446,"Cambie & Georgia, Cambie St, Vancouver, BC V6B 2R5, Canada"
Prince Edward,Marine Dr,Vancouver,18/09/2011,Collisions With Other Vehicles,Nan,Nan,174679,49.210891600000004,-123.0984114,"Prince Edward St & SE Marine Dr, Vancouver, BC V5X 2S8, Canada"
10,Granville,Vancouver,19/09/2011,Collisions With Other Vehicles,Nan,Nan,174450,49.2818828,-123.11857820000002,"10-736 Granville St, Vancouver, BC V6Z 1G3, Canada"
Alma,4 Ave,Vancouver,20/09/2011,Collisions With Other Vehicles,Nan,Nan,174355,49.268623600000005,-123.18569939999999,"Alma St & W 4th Ave, Vancouver, BC V6R 3P8, Canada"
Seymour,Pender,Vancouver,20/09/2011,Collisions With Other Vehicles,Nan,Nan,174452,49.284021,-123.11385779999999,"W Pender St & Seymour St, Vancouver, BC V6B 1V3, Canada"
Hwy 1,Willingdon,Burnaby,21/09/2011,Collisions With Other Vehicles,Nan,Nan,174335,49.2668096,-123.0040067,"4461 Lougheed Hwy #1, Burnaby, BC V5C 3Z2, Canada"
Nan,Otc Garage,Vancouver,21/09/2011,Collisions With Objects,Nan,Nan,174780,49.282729100000005,-123.1207375,"Vancouver, BC, Canada"
6 Ave,Clark,Vancouver,21/09/2011,Collisions With Other Vehicles,Nan,Nan,174421,49.2651661,-123.07748459999999,"E 6th Ave & Clark Dr, Vancouver, BC V5T 1E6, Canada"
Yew,Cornwall,Vancouver,21/09/2011,Collisions With Objects,Nan,Nan,174781,49.272580600000005,-123.1549761,"Yew St & Cornwall Ave, Vancouver, BC V6K 3E4, Canada"
Bridgeport Station,Bridgeport Station,Richmond,22/09/2011,Collisions With Objects,Nan,Nan,174696,49.195532799999995,-123.12605659999998,"Bridgeport Station, Richmond, BC V6X, Canada"
Rtc Fueling Station,Rtc Fueling Station,Richmond,22/09/2011,Collisions With Objects,Nan,Nan,174542,49.133031700000004,-123.092666,"11131 No 5 Rd, Richmond, BC V7A 4E8, Canada"
146 Street,108 Avenue,Surrey,22/09/2011,Collisions With Objects,Nan,Nan,174534,49.1987561,-122.8174121,"108 Ave & 146 St, Surrey, BC V3R 1V8, Canada"
Mckay Ave,Central Blvs,Burnaby,22/09/2011,Collisions With Other Vehicles,Nan,Nan,171042,49.226881899999995,-123.005726,"McKay Ave & Central Blvd, Burnaby, BC V5H 4W8, Canada"
Burrard St,Georgia St,Vancouver,23/09/2011,Collisions With Objects,Nan,Nan,174588,49.284448,-123.1211287,"Burrard St & W Georgia St, Vancouver, BC V6E 3N9, Canada"
Pender,Homer,Vancouver,23/09/2011,Collisions With Other Vehicles,Nan,Nan,174589,49.282763,-123.11191720000001,"Homer St & W Pender St, Vancouver, BC V6B 2V6, Canada"
Lonsdale,3,North Vancouver,23/09/2011,Collisions With Other Vehicles,Nan,Nan,174718,49.3106956,-123.0803348,"3 Lonsdale Ave, North Vancouver, BC V7M 2E4, Canada"
7 Ave,Main,Vancouver,23/09/2011,Collisions With Objects,Nan,Nan,174927,49.2646204,-123.1009915,"Main St & E 7th Ave, Vancouver, BC V5T, Canada"
Carral,Hastings,Vancouver,23/09/2011,Collisions With Other Vehicles,Nan,Nan,122734,49.281494,-123.10433490000001,"Carrall St & W Hastings St, Vancouver, BC V6A 1M9, Canada"
Cordova,Main,Vancouver,23/09/2011,Collisions With Other Vehicles,Nan,Nan,173380,49.282286299999996,-123.0996086,"Main St & E Cordova St, Vancouver, BC V6A 2S7, Canada"
Smithe,Granville,Vancouver,23/09/2011,Collisions With Other Vehicles,Nan,Nan,173614,49.2803043,-123.12142140000002,"Granville St & Smithe St, Vancouver, BC V6Z 1L2, Canada"
Georgia,Granville,Vancouver,24/09/2011,Collisions With Other Vehicles,Nan,Nan,174722,49.282489500000004,-123.1181328,"Granville St & W Georgia St, Vancouver, BC V7Y 1K4, Canada"
Nanaimo,Broadway,Vancouver,24/09/2011,Collisions With Objects,Nan,Nan,174590,49.2620945,-123.0564871,"E Broadway & Nanaimo St, Vancouver, BC V5M 4T9, Canada"
Nan,Joyce Station,Vancouver,25/09/2011,Collisions With Other Vehicles,Nan,Nan,174198,49.238373200000005,-123.0317578,"JoyceCollingwood Station, Vancouver, BC V5R, Canada"
Georgia,Burrard,Vancouver,25/09/2011,Collisions With Other Vehicles,Nan,Nan,174139,49.284448,-123.1211287,"Burrard St & W Georgia St, Vancouver, BC V6E 3N9, Canada"
26 Ave,Nanaimo St,Vancouver,26/09/2011,Collisions With Other Vehicles,Nan,Nan,174475,49.2471258,-123.0566453,"E 26th Ave & Nanaimo St, Vancouver, BC V5R 1K6, Canada"
1100 Block Venables,1100 Block Venables,Vancouver,26/09/2011,Collisions With Other Vehicles,Nan,Nan,173373,49.276390899999996,-123.08098059999999,"1100 Venables St, Vancouver, BC V6A 2E2, Canada"
Georgia,Granville,Vancouver,27/09/2011,Collisions With Other Vehicles,Nan,Nan,174157,49.282489500000004,-123.1181328,"Granville St & W Georgia St, Vancouver, BC V7Y 1K4, Canada"
Government,Cariboo,Burnaby,27/09/2011,Collisions With Other Vehicles,Nan,Nan,161045,49.2507614,-122.91423759999999,"Government St & Cariboo Rd, Burnaby, BC V5A, Canada"
Buswell,Saba,Richmond,28/09/2011,Collisions With Objects,Nan,Nan,174082,49.1688525,-123.13368500000001,"Buswell St & Saba Rd, Richmond, BC V6Y 4B4, Canada"
Broadway,Granville,Vancouver,28/09/2011,Collisions With Objects,Nan,Nan,173143,49.263561100000004,-123.13859679999999,"Granville St & W Broadway, Vancouver, BC V6H 3G7, Canada"
Robson,Denman,Vancouver,28/09/2011,Collisions With Other Vehicles,Nan,Nan,174839,49.2914913,-123.1354626,"Robson St & Denman St, Vancouver, BC V6G 2L6, Canada"
Haney Place Loop,Haney Place Loop,Maple Ridge,29/09/2011,Collisions With Objects,Nan,Nan,174826,49.219483600000004,-122.5971639,"Haney Place @ Bay 7, Haney Pl, Maple Ridge, BC V2X 6G2, Canada"
Pender,Main,Vancouver,29/09/2011,Collisions With Objects,Nan,Nan,174127,49.2803878,-123.09969440000002,"Main St & E Pender St, Vancouver, BC V6A 2V2, Canada"
51,Fraser,Vancouver,30/09/2011,Collisions With Other Vehicles,Nan,Nan,175577,49.236552200000006,-123.09043600000001,"Fraser St, Vancouver, BC, Canada"
Fir,Broadway,Vancouver,01/10/2011,Collisions With Objects,Nan,Nan,174057,49.263688,-123.1410694,"W Broadway & Fir St, Vancouver, BC V6J 1W9, Canada"
28 Street,Granville,Vancouver,01/10/2011,Collisions With Objects,Nan,Nan,173597,49.2805381,-123.1230591,"700 - 1300 Granville St, Vancouver, BC V6Z 1M7, Canada"
16,Granville,Vancouver,01/10/2011,Collisions With Other Vehicles,Nan,Nan,174571,49.2748641,-123.12942520000001,"16 Granville St, Vancouver, BC V6Z 1N2, Canada"
Victoria,Powell,Vancouver,01/10/2011,Collisions With Other Vehicles,Nan,Nan,176779,49.284771,-123.06506499999999,"Eastbound Powell St @ Victoria Dr, Vancouver, BC V5L 1J3, Canada"
Nan,Dunbar Loop,Vancouver,02/10/2011,Collisions With Other Vehicles,Nan,Nan,174690,49.2347765,-123.1853515,"Dunbar Loop, Vancouver, BC V6N 1W5, Canada"
Jackson,Powell,Vancouver,03/10/2011,Collisions With Other Vehicles,Nan,Nan,173744,49.2831047,-123.0933361,"Powell St & Jackson Ave, Vancouver, BC V6A 1G8, Canada"
Temp Terminus At Capilano Unviersity,Temp Terminus At Capilano University,North Vancouver,03/10/2011,Collisions With Objects,Nan,Nan,173944,49.317754,-123.019085,"2055 Purcell Way, North Vancouver, BC V7J 3H5, Canada"
Vanness Ave,Joyce Stn Terminus,Vancouver,03/10/2011,Collisions With Other Vehicles,Nan,Nan,173772,49.238222,-123.03183729999999,"Joyce St & Vanness Ave, Vancouver, BC V5R 4H1, Canada"
No 1 Rd,Chatham,Richmond,04/10/2011,Collisions With Other Vehicles,Nan,Nan,174946,49.1265494,-123.1812132,"Chatham St & No 1 Rd, Richmond, BC V7E 2Z7, Canada"
Nan,Metrotown Exchange,Burnaby,05/10/2011,Collisions With Other Vehicles,Nan,Nan,174814,49.225778000000005,-123.000378,"4720 Kingsway #105, Burnaby, BC V5H 4N2, Canada"
Centre St,River Rd,Surrey,05/10/2011,Collisions With Objects,Nan,Nan,173194,49.1586839,-122.9380134,"Eastbound River Rd @ Centre St, Delta, BC V4C 2R5, Canada"
203 Street,56 Avenue ,Langley,05/10/2011,Collisions With Other Vehicles,Nan,Nan,174064,49.1041223,-122.6602098,"203 St & 56 Ave, Langley City, BC V3A 4B3, Canada"
Nan,Grouse Mountain Parking Lane,North Vancouver,05/10/2011,Collisions With Other Vehicles,Nan,Nan,173994,49.3722894,-123.09948689999999,"Grouse Mountain, 6400 Nancy Greene Way, North Vancouver, BC V7R 4K9, Canada"
West Blvd,41 Avenue,Vancouver,05/10/2011,Collisions With Objects,Nan,Nan,173611,49.234625,-123.1555635,"West Blvd & W 41st Ave, Vancouver, BC V6M 1Z6, Canada"
Metrotown Bus Loop,Metrotown Bus Loop,Burnaby,06/10/2011,Collisions With Objects,Nan,Nan,173836,49.2259599,-123.0027938,"Metrotown Stn Bay 5, Burnaby, BC V5H 4J5, Canada"
Terminus,Coquitlam Stn,Coquitlam,06/10/2011,Collisions With Other Vehicles,Nan,Nan,127123,49.2739076,-122.800077,"Coquitlam Central, 2900 Barnet Hwy, Coquitlam, BC V3B 0G1, Canada"
Seymour,Pender,Vancouver,07/10/2011,Collisions With Other Vehicles,Nan,Nan,174701,49.284021,-123.11385779999999,"W Pender St & Seymour St, Vancouver, BC V6B 1V3, Canada"
Kitsalano Div,Macdonald,Vancouver,07/10/2011,Collisions With Other Vehicles,Nan,Nan,173628,49.2641249,-123.16821809999999,"Macdonald St, Vancouver, BC, Canada"
29 Ave,Dunbar,Vancouver,07/10/2011,Collisions With Other Vehicles,Nan,Nan,173880,49.246159999999996,-123.18523300000001,"Dunbar St & W 29th Ave, Vancouver, BC V6S 2G6, Canada"
Heatley,Hastings,Vancouver,08/10/2011,Collisions With Other Vehicles,Nan,Nan,173996,49.2811598,-123.08959240000002,"Heatley Ave & E Hastings St, Vancouver, BC V6A 4J9, Canada"
Powell,Main,Vancouver,08/10/2011,Collisions With Other Vehicles,Nan,Nan,123208,49.28319260000001,-123.09957240000001,"Main St & Powell St, Vancouver, BC V6A 3V5, Canada"
Bay 1 And 3,University Loop (Ubc),Vancouver,08/10/2011,Collisions With Objects,Nan,Nan,174870,49.2674515,-123.24797849999999,"UBC Bus Exchange, Student Union Blvd, University Endowment Lands, BC V6T 2C9, Canada"
536 E 3Rd St,Nvt Yard,North Vancouver,12/10/2011,Collisions With Other Vehicles,Nan,Nan,174992,49.3199816,-123.0724139,"North Vancouver, BC, Canada"
Broadway,Granville,Vancouver,13/10/2011,Collisions With Other Vehicles,Nan,Nan,174085,49.263561100000004,-123.13859679999999,"Granville St & W Broadway, Vancouver, BC V6H 3G7, Canada"
Oakridge Depot,Oakridge Depot,Vancouver,13/10/2011,Collisions With Other Vehicles,Nan,Nan,173454,49.2347458,-123.1156668,"5524 Cambie St, Vancouver, BC V5Z 3A2, Canada"
Homer,Hastings,Vancouver,13/10/2011,Collisions With Objects,Nan,Nan,173455,49.2833967,-123.11093229999999,"Homer St & W Hastings St, Vancouver, BC V6B 1K6, Canada"
Grand Blvd,15,North Vancouver,13/10/2011,Collisions With Other Vehicles,Nan,Nan,175692,49.3281842,-123.06085559999998,"Grand Blvd, North Vancouver, BC V7L, Canada"
Nanaimo,24,Vancouver,14/10/2011,Collisions With Other Vehicles,Nan,Nan,174094,49.2843258,-123.05656100000002,"24 Nanaimo St, Vancouver, BC V5L, Canada"
S.Fence,Coquitlam Stn,Coquitlam,14/10/2011,Collisions With Objects,Nan,Nan,174470,49.2614802,-122.7740672,"Port Coquitlam, 2125 Kingsway Ave, Port Coquitlam, BC V3C 1T2, Canada"
Farbox Hut,Vtc,Vancouver,14/10/2011,Collisions With Objects,Nan,Nan,174121,49.282729100000005,-123.1207375,"Vancouver, BC, Canada"
52 Ave,Fraser,Vancouver,15/10/2011,Collisions With Other Vehicles,Nan,Nan,174881,49.222703,-123.09083100000001,"E 52nd Ave & Fraser St, Vancouver, BC V5X 3T7, Canada"
