query,street1,street2,city,lat,long,formatted_address
"Windsor & 41 Ave, Vancouver, BC",Windsor,41 Ave,Vancouver,49.2328014,-123.0848104,"E 41st Ave & Windsor St, Vancouver, BC V5W, Canada"
"22Nd St Station Loop & Ladner St, New Westminster, BC",22Nd St Station Loop,Ladner St,New Westminster,49.1999652,-122.949048,"22nd Street, 649 22nd St, New Westminster, BC V3M, Canada"
"Nanton & Granville, Vancouver, BC",Nanton,Granville,Vancouver,49.2474197,-123.1391558,"Granville St & Nanton Ave, Vancouver, BC V6H 2E1, Canada"
"Nan & Btc Yard, Burnaby, BC",Nan,Btc Yard,Burnaby,49.2488091,-122.9805104,"Burnaby, BC, Canada"
"Bidwell & Davie, Vancouver, BC",Bidwell,Davie,Vancouver,49.2862473,-123.1402213,"Bidwell St & Davie St, Vancouver, BC V6G 2K6, Canada"
"Bidwell & Davie, Vancouver, BC",Bidwell,Davie,Vancouver,49.2862473,-123.1402213,"Bidwell St & Davie St, Vancouver, BC V6G 2K6, Canada"
"44 Ave & Fraser, Vancouver, BC",44 Ave,Fraser,Vancouver,49.2300832,-123.0906341,"E 44th Ave & Fraser St, Vancouver, BC V5W 2Z8, Canada"
"103 Ave & Scott Rd, Surrey, BC",103 Ave,Scott Rd,Surrey,49.1906095,-122.8902321,"103 A Ave & Scott Rd, Surrey, BC V3V 4G2, Canada"
"203 St & 58 Ave, Langley, BC",203 St,58 Ave,Langley,49.120631,-122.6601665,"203 St, Langley Twp, BC, Canada"
"Richards & Cordova, Vancouver, BC",Richards,Cordova,Vancouver,49.2846865,-123.1108963,"Richards St & W Cordova St, Vancouver, BC V6B 4Y2, Canada"
"20 St & Westview, North Vancouver, BC",20 St,Westview,North Vancouver,49.327416,-123.0894301,"Westview Dr & 20th St W, North Vancouver, BC V7M 3A9, Canada"
"19 Ave & Knight, Vancouver, BC",19 Ave,Knight,Vancouver,49.2535024,-123.0760567,"Knight St & E 19th Ave, Vancouver, BC V5V 1L4, Canada"
"49 Ave & Oak, Vancouver, BC",49 Ave,Oak,Vancouver,49.2265978,-123.1284065,"W 49th Ave & Oak St, Vancouver, BC V6M 2P7, Canada"
"49 Ave & Oak, Vancouver, BC",49 Ave,Oak,Vancouver,49.2265978,-123.1284065,"W 49th Ave & Oak St, Vancouver, BC V6M 2P7, Canada"
"Ubc Loop & Ubc Loop, Vancouver, BC",Ubc Loop,Ubc Loop,Vancouver,49.2675511,-123.2481004,"UBC Exchange, Greater Vancouver A, University Endowment Lands, BC V6T 2B9, Canada"
"Boundary & Hastings, Burnaby, BC",Boundary,Hastings,Burnaby,49.2811438,-123.0236986,"Hastings St & Boundary Rd, Vancouver, BC V5K 2B1, Canada"
"37 Ave & Granville, Vancouver, BC",37 Ave,Granville,Vancouver,49.2380528,-123.1394522,"Granville St & W 37th Ave, Vancouver, BC V6M 3B9, Canada"
"Lansdowne & 3 Rd, Richmond, BC",Lansdowne,3 Rd,Richmond,49.1739122,-123.1368381,"Lansdowne Rd & Number 3 Rd, Richmond, BC V6X 2C7, Canada"
"Burrard  & 16 Ave, Vancouver, BC",Burrard ,16 Ave,Vancouver,49.2571739,-123.1460015,"Burrard St & W 16th Ave, Vancouver, BC V6J 2M2, Canada"
"Wessex & Kingsway, Vancouver, BC",Wessex,Kingsway,Vancouver,49.2331545,-123.0340471,"Kingsway & Wessex St, Vancouver, BC V5R 6G7, Canada"
"West Blvd & 41 Ave, Vancouver, BC",West Blvd,41 Ave,Vancouver,49.234625,-123.1555635,"West Blvd & W 41st Ave, Vancouver, BC V6M 1Z6, Canada"
"Nelson & Granville, Vancouver, BC",Nelson,Granville,Vancouver,49.2792748,-123.12302,"Granville St & Nelson St, Vancouver, BC V6Z 2A8, Canada"
"12 Ave & Oak, Vancouver, BC",12 Ave,Oak,Vancouver,49.260642,-123.1267783,"W 12th Ave & Oak St, Vancouver, BC V6H 3N3, Canada"
"20 Ave & Granville, Vancouver, BC",20 Ave,Granville,Vancouver,49.2684472,-123.1382456,"20 Granville St, Vancouver, BC V6H, Canada"
"13 Ave & Granville, Vancouver, BC",13 Ave,Granville,Vancouver,49.259837,-123.1387014,"Granville St & W 13th Ave, Vancouver, BC V6H 1P1, Canada"
"Shell Rd Overpass & Hwy 99, Richmond, BC",Shell Rd Overpass,Hwy 99,Richmond,49.1700616,-123.1029722,"Shell Rd, Richmond, BC, Canada"
"1 Ave & Commercial, Vancouver, BC",1 Ave,Commercial,Vancouver,49.2696553,-123.0696629,"Commercial Dr & E 1st Ave, Vancouver, BC V5L 3Y4, Canada"
"Gilley & Kingsway, Burnaby, BC",Gilley,Kingsway,Burnaby,49.2199245,-122.9720076,"Gilley Ave & Kingsway, Burnaby, BC V5E 1C9, Canada"
"Park Royal & Marine, West Vancouver, BC",Park Royal,Marine,West Vancouver,49.3269555,-123.1378993,"Park Royal S & Marine Dr, West Vancouver, BC V7T 2W4, Canada"
"Granville & Pender, Vancouver, BC",Granville,Pender,Vancouver,49.2846675,-123.114861,"Granville St & W Pender St, Vancouver, BC V6C 1X6, Canada"
"Cypress & Cornwall, Vancouver, BC",Cypress,Cornwall,Vancouver,49.2724775,-123.147793,"Cypress St & Cornwall Ave, Vancouver, BC V6J 1C6, Canada"
"Purcell & Lillooet, North Vancouver, BC",Purcell,Lillooet,North Vancouver,49.3175093,-123.0239964,"Lillooet Rd & Purcell Way, North Vancouver, BC V7J 3H7, Canada"
"2500 Block & Macdonald, Vancouver, BC",2500 Block,Macdonald,Vancouver,49.2643261,-123.1679952,"2500 Macdonald St, Vancouver, BC V6K 2G6, Canada"
"Hawks & Hastings, Vancouver, BC",Hawks,Hastings,Vancouver,49.2811175,-123.0871333,"Hawks Ave & E Hastings St, Vancouver, BC V6A 1R8, Canada"
"41 Ave & Granville, Vancouver, BC",41 Ave,Granville,Vancouver,49.2343405,-123.1396258,"Granville St & W 41st Ave, Vancouver, BC V6M 1X7, Canada"
"Goard Way & Willingdon, Burnaby, BC",Goard Way,Willingdon,Burnaby,49.251824,-123.004408,"Willingdon Ave & Goard Way, Burnaby, BC V5G 3X1, Canada"
"Stanley Park & Stanley Park Causeway, Vancouver, BC",Stanley Park,Stanley Park Causeway,Vancouver,49.3031217,-123.1449481,"Stanley Park Causeway, Vancouver, BC V6G, Canada"
"Oak & 70 Ave, Vancouver, BC",Oak,70 Ave,Vancouver,49.208447,-123.130254,"W 70th Ave & Oak St, Vancouver, BC V6P 4B3, Canada"
"Bay 14 & Ubc Loop, Vancouver, BC",Bay 14,Ubc Loop,Vancouver,49.2671797,-123.2486487,"UBC Exchange Bay 3, UBC Bus Exchange, Wesbrook Mall, UBC, BC V6T 2B9, Canada"
"59 Ave & Oak, Vancouver, BC",59 Ave,Oak,Vancouver,49.217111,-123.129293,"W 59th Ave & Oak St, Vancouver, BC V6P, Canada"
"51 Ave & Oak, Vancouver, BC",51 Ave,Oak,Vancouver,49.2247948,-123.1283984,"W 51st Ave & Oak St, Vancouver, BC V6P 1C2, Canada"
"North Rd & Clark, Coquitlam, BC",North Rd,Clark,Coquitlam,49.2681119,-122.8817634,"Clarke Rd, Coquitlam, BC, Canada"
"59 Ave & Oak, Vancouver, BC",59 Ave,Oak,Vancouver,49.217111,-123.129293,"W 59th Ave & Oak St, Vancouver, BC V6P, Canada"
"41 Ave & Granville, Vancouver, BC",41 Ave,Granville,Vancouver,49.2343405,-123.1396258,"Granville St & W 41st Ave, Vancouver, BC V6M 1X7, Canada"
"Dunsmuir & Burrard, Vancouver, BC",Dunsmuir,Burrard,Vancouver,49.2855457,-123.1193954,"Burrard St & Dunsmuir St, Vancouver, BC V6C, Canada"
"Curzon & Blundell, Richmond, BC",Curzon,Blundell,Richmond,49.155579,-123.1508566,"Blundell Rd & Curzon St, Richmond, BC V7C 1H8, Canada"
"Skeena & Hastings, Vancouver, BC",Skeena,Hastings,Vancouver,49.2811182,-123.0283059,"E Hastings St & Skeena St, Vancouver, BC V5K 2A7, Canada"
"68 Ave & Granville, Vancouver, BC",68 Ave,Granville,Vancouver,49.2105113,-123.1404567,"Granville St & W 68th Ave, Vancouver, BC V6P 4Z7, Canada"
"Yukon & Sw Marine, Vancouver, BC",Yukon,Sw Marine,Vancouver,49.210961,-123.1153397,"SW Marine Dr & Yukon St, Vancouver, BC V5X 2R9, Canada"
"Inverness & Kingsway, Vancouver, BC",Inverness,Kingsway,Vancouver,49.2519964,-123.079882,"Kingsway & Inverness St, Vancouver, BC V5V, Canada"
"Ubc Loop & Ubc Loop, Vancouver, BC",Ubc Loop,Ubc Loop,Vancouver,49.2675511,-123.2481004,"UBC Exchange, Greater Vancouver A, University Endowment Lands, BC V6T 2B9, Canada"
"Between 29 Ave & 28 Ave & Oak, Vancouver, BC",Between 29 Ave & 28 Ave,Oak,Vancouver,49.2442071,-123.0459788,"29th Avenue, 2790 E 29th Ave, Vancouver, BC V5R 1V8, Canada"
"Kincaid & Smith, Burnaby, BC",Kincaid,Smith,Burnaby,49.2488197,-123.0198286,"Kincaid St & Smith Ave, Burnaby, BC V5G 2T8, Canada"
"20 St & 7 Ave, New Westminster, BC",20 St,7 Ave,New Westminster,49.2015763,-122.9467546,"20th St & 7th Ave, New Westminster, BC V3M 4W4, Canada"
"6 Ave & 8 St, New Westminster, BC",6 Ave,8 St,New Westminster,49.211176,-122.9240099,"6th Ave & 8th St, New Westminster, BC V3M 3S2, Canada"
"13 St & Lonsdale, North Vancouver, BC",13 St,Lonsdale,North Vancouver,49.3200291,-123.0723931,"Lonsdale Ave & E 13th St, North Vancouver, BC V7M 2H7, Canada"
"Skeena & Hastings, Vancouver, BC",Skeena,Hastings,Vancouver,49.2811182,-123.0283059,"E Hastings St & Skeena St, Vancouver, BC V5K 2A7, Canada"
"Brooksbank & Cotton, North Vancouver, BC",Brooksbank,Cotton,North Vancouver,49.3072558,-123.0405169,"Brooksbank Ave & Cotton Rd, North Vancouver, BC V7J 2B9, Canada"
"Cambie & Broadway, Vancouver, BC",Cambie,Broadway,Vancouver,49.2632793,-123.1149908,"Cambie St & W Broadway, Vancouver, BC V5Z 4M5, Canada"
"Cambie & Broadway, Vancouver, BC",Cambie,Broadway,Vancouver,49.2632793,-123.1149908,"Cambie St & W Broadway, Vancouver, BC V5Z 4M5, Canada"
"49 Ave & Oak, Vancouver, BC",49 Ave,Oak,Vancouver,49.2265978,-123.1284065,"W 49th Ave & Oak St, Vancouver, BC V6M 2P7, Canada"
"41 Ave & Oak, Vancouver, BC",41 Ave,Oak,Vancouver,49.2340057,-123.1279867,"W 41st Ave & Oak St, Vancouver, BC V5Z 2N5, Canada"
"Granville & Pender, Vancouver, BC",Granville,Pender,Vancouver,49.2846675,-123.114861,"Granville St & W Pender St, Vancouver, BC V6C 1X6, Canada"
"Fir St & E 2Nd Ave, Vancouver, BC",Fir St,E 2Nd Ave,Vancouver,49.2697098,-123.1407911,"W 2nd Ave & Fir St, Vancouver, BC V6J 3B1, Canada"
"King Edward & Cambie, Vancouver, BC",King Edward,Cambie,Vancouver,49.2489409,-123.1155531,"Cambie St & W King Edward Ave, Vancouver, BC V5Z, Canada"
"Maple & Broadway, Vancouver, BC",Maple,Broadway,Vancouver,49.2637442,-123.150531,"W Broadway & Maple St, Vancouver, BC V6J 1Z2, Canada"
"Nelson & Kingsway, Burnaby, BC",Nelson,Kingsway,Burnaby,49.2266971,-122.9943283,"Nelson Ave & Kingsway, Burnaby, BC V5H 4P2, Canada"
"Marmont & Brunette, Coquitlam, BC",Marmont,Brunette,Coquitlam,49.2387084,-122.8622701,"Brunette Ave & Marmont St, Coquitlam, BC V3K, Canada"
"Yukon & Sw Marine, Vancouver, BC",Yukon,Sw Marine,Vancouver,49.210961,-123.1153397,"SW Marine Dr & Yukon St, Vancouver, BC V5X 2R9, Canada"
"Waterloo St & W Broadway, Vancouver, BC",Waterloo St,W Broadway,Vancouver,49.2642758,-123.1798446,"W Broadway & Waterloo St, Vancouver, BC V6R 3H4, Canada"
"Waterloo St & W Broadway, Vancouver, BC",Waterloo St,W Broadway,Vancouver,49.2642758,-123.1798446,"W Broadway & Waterloo St, Vancouver, BC V6R 3H4, Canada"
"28 Ave & Dunbar, Vancouver, BC",28 Ave,Dunbar,Vancouver,49.247117,-123.185222,"Dunbar St & W 28th Ave, Vancouver, BC V6S 2G5, Canada"
"Wolfe & 16 Ave, Vancouver, BC",Wolfe,16 Ave,Vancouver,49.2571127,-123.131836,"Wolfe Ave & W 16th Ave, Vancouver, BC V6H 1W1, Canada"
"60 Ave & Granville, Vancouver, BC",60 Ave,Granville,Vancouver,49.216777,-123.140242,"Granville St & W 60th Ave, Vancouver, BC V6P 4Y7, Canada"
"Wesbrook Mall & Ubc Bus Loop, Vancouver, BC",Wesbrook Mall,Ubc Bus Loop,Vancouver,49.2676367,-123.2466064,"Wesbrook Mall & UBC Bus Loop, University Endowment Lands, BC V6T, Canada"
"Blue Mountain Rd & Lougheed Hwy, Coquitlam, BC",Blue Mountain Rd,Lougheed Hwy,Coquitlam,49.2368571,-122.8731394,"Blue Mountain St & Lougheed Hwy, Coquitlam, BC V3K 4H1, Canada"
"Heather & King Edward, Vancouver, BC",Heather,King Edward,Vancouver,49.2491659,-123.1203602,"W King Edward Ave & Heather St, Vancouver, BC V5Z 2C6, Canada"
"Renfrew & Hastings, Vancouver, BC",Renfrew,Hastings,Vancouver,49.2810796,-123.0441015,"Renfrew St & E Hastings St, Vancouver, BC V5K 5C5, Canada"
"Lynn Creek Bridge & Keith Rd, North Vancouver, BC",Lynn Creek Bridge,Keith Rd,North Vancouver,49.3132995,-123.0335692,"Keith Road Bridge, North Vancouver, BC V7J, Canada"
"4 Ave & 12 St, New Westminster, BC",4 Ave,12 St,New Westminster,49.2047214,-122.92689,"12th St & 4th Ave, New Westminster, BC V3M 1T8, Canada"
"8 St & Carnarvon, New Westminster, BC",8 St,Carnarvon,New Westminster,49.202101,-122.912591,"Carnarvon St & Eighth St, New Westminster, BC V3M 0G3, Canada"
"Fraser Hwy & 203 St, Langley, BC",Fraser Hwy,203 St,Langley,49.1055604,-122.6602276,"Fraser Hwy & 203 St, Langley City, BC V3A 4E7, Canada"
"Granville & 63 Ave, Vancouver, BC",Granville,63 Ave,Vancouver,49.2140121,-123.1403504,"Granville St & W 63rd Ave, Vancouver, BC V6P 4Z2, Canada"
"Nan & Surrey Central Station, Surrey, BC",Nan,Surrey Central Station,Surrey,49.1896129,-122.8479484,"Surrey Central Station, 14479 106 Ave, Surrey, BC V3R 1S9, Canada"
"Brooksbank & Lynn & Lynn Creek Bridge, North Vancouver, BC",Brooksbank & Lynn,Lynn Creek Bridge,North Vancouver,49.345261,-123.022455,"Lynn Creek, BC V7J 3K2, Canada"
"River Rd & 46A St, Delta, BC",River Rd,46A St,Delta,49.0889545,-123.0950088,"46a St & River Rd W, Delta, BC V4K 1V2, Canada"
"224 St & Civic Centre & Dewdney Trunk Rd, Maple Ridge, BC",224 St & Civic Centre,Dewdney Trunk Rd,Maple Ridge,49.2199139,-122.5996999,"22470 Dewdney Trunk Rd #175, Maple Ridge, BC V2X 5Z6, Canada"
"64 Ave & Granville, Vancouver, BC",64 Ave,Granville,Vancouver,49.21314,-123.140375,"Granville St & W 64th Ave, Vancouver, BC V6P 4Z5, Canada"
"King Edward & Oak, Vancouver, BC",King Edward,Oak,Vancouver,49.2491615,-123.1276458,"W King Edward Ave & Oak St, Vancouver, BC V6H, Canada"
"Nanaimo & Hastings, Vancouver, BC",Nanaimo,Hastings,Vancouver,49.2811693,-123.0566843,"E Hastings St & Nanaimo St, Vancouver, BC V5L 1V5, Canada"
"Marine Station & Marine Station, Vancouver, BC",Marine Station,Marine Station,Vancouver,49.2095967,-123.1169526,"Marine Drive, Vancouver, BC V5X 0C7, Canada"
"Marine Station & Marine Station, Vancouver, BC",Marine Station,Marine Station,Vancouver,49.2095967,-123.1169526,"Marine Drive, Vancouver, BC V5X 0C7, Canada"
"Guildford Library & 105 Ave, Surrey, BC",Guildford Library,105 Ave,Surrey,49.1933685,-122.8034614,"15105 105 Ave, Surrey, BC V3R 7G8, Canada"
"Boundary & Kincaid, Burnaby, BC",Boundary,Kincaid,Burnaby,49.2488578,-123.0238569,"Kincaid St & Boundary Rd, Vancouver, BC V5R 2M4, Canada"
"Moscrop & Willingdon, Burnaby, BC",Moscrop,Willingdon,Burnaby,49.2429311,-123.0034463,"Moscrop St & Willingdon Ave, Burnaby, BC V5G, Canada"
"6 Ave & 8 St, New Westminster, BC",6 Ave,8 St,New Westminster,49.211176,-122.9240099,"6th Ave & 8th St, New Westminster, BC V3M 3S2, Canada"
"68 Ave & 128 St, Surrey, BC",68 Ave,128 St,Surrey,49.1265835,-122.867898,"68 Ave & 128 St, Surrey, BC V3W 4C8, Canada"
"Mountain Hwy & Main, North Vancouver, BC",Mountain Hwy,Main,North Vancouver,49.3052593,-123.0320512,"Mountain Hwy & Main St, North Vancouver, BC V7J 1E2, Canada"
"St. John & William, Port Moody, BC",St. John,William,Port Moody,49.2769502,-122.8634264,"2206 St Johns St, Port Moody, BC V3H 2A7, Canada"
"Rocket Way & Golden, Coquitlam, BC",Rocket Way,Golden,Coquitlam,49.2306899,-122.8245414,"Golden Dr & Rocket Way, Coquitlam, BC V3K 6T1, Canada"
"Arbutus & 4 Ave, Vancouver, BC",Arbutus,4 Ave,Vancouver,49.268156,-123.1528035,"Arbutus St & W 4th Ave, Vancouver, BC V6K 1N7, Canada"
"135 Stop & Burrard Station, Vancouver, BC",135 Stop,Burrard Station,Vancouver,49.2854669,-123.1201261,"Burrard, Vancouver, BC V6C 0A4, Canada"
"18 Ave & Cambie, Vancouver, BC",18 Ave,Cambie,Vancouver,49.2548733,-123.1151876,"Cambie St & W 18th Ave, Vancouver, BC V5Z 3B7, Canada"
"Lougheed Hwy & Sperling, Burnaby, BC",Lougheed Hwy,Sperling,Burnaby,49.2595683,-122.9645879,"Sperling Ave & Lougheed Hwy, Burnaby, BC V5A, Canada"
"Courtenay & 10 Ave, Vancouver, BC",Courtenay,10 Ave,Vancouver,49.2636967,-123.1999707,"Courtenay St & W 10th Ave, Vancouver, BC V6R 2H3, Canada"
"49 Ave & Granville, Vancouver, BC",49 Ave,Granville,Vancouver,49.2269604,-123.1398446,"Granville St & W 49th Ave, Vancouver, BC V6M 3E7, Canada"
"Broadway & Granville, Vancouver, BC",Broadway,Granville,Vancouver,49.2635611,-123.1385968,"Granville St & W Broadway, Vancouver, BC V6H 3G7, Canada"
"Robson & Granville, Vancouver, BC",Robson,Granville,Vancouver,49.2813649,-123.1198429,"Robson St & Granville St, Vancouver, BC V6Z 1A1, Canada"
"Robson & Granville, Vancouver, BC",Robson,Granville,Vancouver,49.2813649,-123.1198429,"Robson St & Granville St, Vancouver, BC V6Z 1A1, Canada"
"Commercial & Broadway, Vancouver, BC",Commercial,Broadway,Vancouver,49.2623855,-123.0697676,"Commercial Dr & E Broadway, Vancouver, BC V5N 1W2, Canada"
"Trapp & Marine, New Westminster, BC",Trapp,Marine,New Westminster,49.1981172,-122.9531483,"Marine Dr & Trapp Rd, New Westminster, BC V3M 6R8, Canada"
"Thunderbird Arena & Wesbrook Mall, Vancouver, BC",Thunderbird Arena,Wesbrook Mall,Vancouver,49.2605684,-123.2414123,"6066 Thunderbird Blvd, Vancouver, BC V6T 1Z3, Canada"
"Rosser & Hastings, Burnaby, BC",Rosser,Hastings,Burnaby,49.2810243,-123.0058667,"Hastings St & Rosser Ave, Burnaby, BC V5C 2K2, Canada"
"Granville & 41 Ave, Vancouver, BC",Granville,41 Ave,Vancouver,49.2343405,-123.1396258,"Granville St & W 41st Ave, Vancouver, BC V6M 1X7, Canada"
"Cambie & Hastings, Vancouver, BC",Cambie,Hastings,Vancouver,49.2825406,-123.1095738,"Cambie St & W Hastings St, Vancouver, BC V6B 2N4, Canada"
"Fell & Marine, North Vancouver, BC",Fell,Marine,North Vancouver,49.3212542,-123.0946554,"Marine Dr & Fell Ave, North Vancouver, BC V7P 1R8, Canada"
"Pemberton & 22 St, North Vancouver, BC",Pemberton,22 St,North Vancouver,49.3297185,-123.1017884,"W 22nd St, North Vancouver, BC, Canada"
"6 Ave & 8 St, New Westminster, BC",6 Ave,8 St,New Westminster,49.211176,-122.9240099,"6th Ave & 8th St, New Westminster, BC V3M 3S2, Canada"
"Grandview Hwy & Nanaimo, Vancouver, BC",Grandview Hwy,Nanaimo,Vancouver,49.257711,-123.0565571,"South Grandview Highway & Nanaimo St, Vancouver, BC V5N 5G3, Canada"
"Tatlon & Marine, North Vancouver, BC",Tatlon,Marine,North Vancouver,49.314806,-123.0895539,"419 Esplanade W, North Vancouver, BC V7M 1A6, Canada"
"Blenheim & Broadway, Vancouver, BC",Blenheim,Broadway,Vancouver,49.2642457,-123.1778372,"W Broadway & Blenheim St, Vancouver, BC V6K 4N7, Canada"
"Stop 5 & 6 & Lonsdale Quay, North Vancouver, BC",Stop 5 & 6,Lonsdale Quay,North Vancouver,49.310917,-123.08258,"Lonsdale Quay @ Bay 3, North Vancouver, BC V7M 3L4, Canada"
"7 Ave & Main, Vancouver, BC",7 Ave,Main,Vancouver,49.2646204,-123.1009915,"Main St & E 7th Ave, Vancouver, BC V5T, Canada"
"Sussex & Bond, Burnaby, BC",Sussex,Bond,Burnaby,49.2354072,-122.9978276,"Bond St & Sussex Ave, Burnaby, BC V5H 3B2, Canada"
"Georgia & Cambie, Vancouver, BC",Georgia,Cambie,Vancouver,49.2793345,-123.1132596,"W Georgia St & Cambie St, Vancouver, BC V6B 4P4, Canada"
"Wesbrook Mall & 16 Ave, Vancouver, BC",Wesbrook Mall,16 Ave,Vancouver,49.256287,-123.234956,"Westbound W 16 Ave @ Wesbrook Mall, University Endowment Lands, BC V6S, Canada"
"Cambie & 2 Ave, Vancouver, BC",Cambie,2 Ave,Vancouver,49.2540505,-123.1150032,"511 W 19th Ave, Vancouver, BC V5Z 2W8, Canada"
"Robson & Burrard, Vancouver, BC",Robson,Burrard,Vancouver,49.2832975,-123.1228016,"Robson St & Burrard St, Vancouver, BC V6E 1A9, Canada"
"49 Ave & Knight, Vancouver, BC",49 Ave,Knight,Vancouver,49.2253525,-123.0774146,"Knight St & E 49th Ave, Vancouver, BC V5W 2J6, Canada"
"33 Ave & Granville, Vancouver, BC",33 Ave,Granville,Vancouver,49.2418674,-123.1393324,"Granville St & W 33rd Ave, Vancouver, BC V6H 3M2, Canada"
"67 Ave & Oak, Vancouver, BC",67 Ave,Oak,Vancouver,49.210724,-123.130187,"W 67th Ave & Oak St, Vancouver, BC V6P 4B1, Canada"
"South Surrey Exit Park & Ride & South Surrey Exit Park & Ride, Surrey, BC",South Surrey Exit Park & Ride,South Surrey Exit Park & Ride,Surrey,49.0721037,-122.8218102,"King George Blvd, Surrey, BC V3T 5H9, Canada"
"Howe & Davie, Vancouver, BC",Howe,Davie,Vancouver,49.277807,-123.1272001,"Davie St & Howe St, Vancouver, BC V6Z 0A8, Canada"
"Kingsway & Joyce, Vancouver, BC",Kingsway,Joyce,Vancouver,49.2342077,-123.0358375,"Joyce St & Kingsway, Vancouver, BC V5R, Canada"
"B/W Maple & East Blvd & 41 Ave, Vancouver, BC",B/W Maple & East Blvd,41 Ave,Vancouver,49.234539,-123.155008,"East Blvd & W 41st Ave, Vancouver, BC V6M, Canada"
"17 Ave & Fraser, Vancouver, BC",17 Ave,Fraser,Vancouver,49.2555288,-123.0898615,"E 17th Ave & Fraser St, Vancouver, BC V5V 4C1, Canada"
"29 Ave & Fraser, Vancouver, BC",29 Ave,Fraser,Vancouver,49.2445582,-123.0902533,"E 29th Ave & Fraser St, Vancouver, BC V5V 4G7, Canada"
"B/W Maple & East Blvd & 41 Ave, Vancouver, BC",B/W Maple & East Blvd,41 Ave,Vancouver,49.234539,-123.155008,"East Blvd & W 41st Ave, Vancouver, BC V6M, Canada"
"Balsam  & 41 Ave, Vancouver, BC",Balsam ,41 Ave,Vancouver,49.2346745,-123.1613499,"W 41st Ave & Balsam St, Vancouver, BC V6M 2A7, Canada"
"B/W 10  Ave & Broadway & Main, Vancouver, BC",B/W 10  Ave & Broadway,Main,Vancouver,49.26277,-123.1044964,"10 E Broadway W, Vancouver, BC V5T 1V6, Canada"
"Woodland & Broadway, Vancouver, BC",Woodland,Broadway,Vancouver,49.262447,-123.0740669,"Westbound E Broadway @ Woodland Dr, Vancouver, BC V5N 1V8, Canada"
"Skeena & Broadway, Vancouver, BC",Skeena,Broadway,Vancouver,49.2875812,-123.1171222,"1021 W Hastings St #650, Vancouver, BC V6E 0C3, Canada"
"142 St & 64 Ave, Surrey, BC",142 St,64 Ave,Surrey,49.1191654,-122.8288047,"64 Ave & 142 St, Surrey, BC V3W 5M6, Canada"
"49 Ave & Granville, Vancouver, BC",49 Ave,Granville,Vancouver,49.2269604,-123.1398446,"Granville St & W 49th Ave, Vancouver, BC V6M 3E7, Canada"
"Dunbar Loop & Dunbar Loop, Vancouver, BC",Dunbar Loop,Dunbar Loop,Vancouver,49.234593,-123.1857501,"Dunbar St @ Dunbar Loop, Vancouver, BC V6N, Canada"
"Dunbar Loop & Dunbar Loop, Vancouver, BC",Dunbar Loop,Dunbar Loop,Vancouver,49.234593,-123.1857501,"Dunbar St @ Dunbar Loop, Vancouver, BC V6N, Canada"
"49 Ave & Granville, Vancouver, BC",49 Ave,Granville,Vancouver,49.2269604,-123.1398446,"Granville St & W 49th Ave, Vancouver, BC V6M 3E7, Canada"
"54 Ave & Kinght, Vancouver, BC",54 Ave,Kinght,Vancouver,49.2204232,-123.0774775,"Knight St & E 54th Ave, Vancouver, BC V5P 1Y1, Canada"
"Ellesmere & Hastings, Burnaby, BC",Ellesmere,Hastings,Burnaby,49.2803458,-122.9823136,"Ellesmere Ave & Hastings St, Burnaby, BC V5B 1R2, Canada"
"80 Ave & 112 St, Delta, BC",80 Ave,112 St,Delta,49.1486605,-122.9125579,"80 Ave & 112 St, Delta, BC V4C 4W4, Canada"
"33 Ave & Granville, Vancouver, BC",33 Ave,Granville,Vancouver,49.2418674,-123.1393324,"Granville St & W 33rd Ave, Vancouver, BC V6H 3M2, Canada"
"Side Fence & Coquitlam Station, Coquitlam, BC",Side Fence,Coquitlam Station,Coquitlam,49.2739076,-122.800077,"Coquitlam Central, 2900 Barnet Hwy, Coquitlam, BC V3B 0G1, Canada"
"Davie & Granville, Vancouver, BC",Davie,Granville,Vancouver,49.277146,-123.1261827,"Granville St & Davie St, Vancouver, BC V6B 2G6, Canada"
"Kootenay & Hastings, Vancouver, BC",Kootenay,Hastings,Vancouver,49.2811202,-123.0256976,"Kootenay St & E Hastings St, Vancouver, BC V5K 2A9, Canada"
"B/W National & Prior & Main, Vancouver, BC",B/W National & Prior,Main,Vancouver,49.2769016,-123.0997601,"Main St & Prior St, Vancouver, BC V6A, Canada"
"Nanaimo & Broadway, Vancouver, BC",Nanaimo,Broadway,Vancouver,49.2620945,-123.0564871,"E Broadway & Nanaimo St, Vancouver, BC V5M 4T9, Canada"
"Bay 1 & Phibbs Exch, North Vancouver, BC",Bay 1,Phibbs Exch,North Vancouver,49.305174,-123.0286,"Phibbs Exchange @ Bay 1, North Vancouver, BC V7J, Canada"
"Bay 1 & Phibbs Exch, North Vancouver, BC",Bay 1,Phibbs Exch,North Vancouver,49.305174,-123.0286,"Phibbs Exchange @ Bay 1, North Vancouver, BC V7J, Canada"
"14 Ave & Oak, Vancouver, BC",14 Ave,Oak,Vancouver,49.258739,-123.1267995,"W 14th Ave & Oak St, Vancouver, BC V6H 2K7, Canada"
"49 Ave & Granville, Vancouver, BC",49 Ave,Granville,Vancouver,49.2269604,-123.1398446,"Granville St & W 49th Ave, Vancouver, BC V6M 3E7, Canada"
"56 Ave & Granville, Vancouver, BC",56 Ave,Granville,Vancouver,49.2199074,-123.140128,"Granville St & W 56th Ave, Vancouver, BC V6P 4X6, Canada"
"Cliveden Off Ramp & Hwy 91, Surrey, BC",Cliveden Off Ramp,Hwy 91,Surrey,49.171733,-122.94928,"Northbound Hwy 91 Offramp @ Cliveden Ave, Delta, BC V3M, Canada"
"Carrall & Pender, Vancouver, BC",Carrall,Pender,Vancouver,49.2804916,-123.1043692,"Carrall St & W Pender St, Vancouver, BC V6A 3V6, Canada"
"Hastings & Renfrew, Vancouver, BC",Hastings,Renfrew,Vancouver,49.2810796,-123.0441015,"Renfrew St & E Hastings St, Vancouver, BC V5K 5C5, Canada"
"Kingsway & Joyce, Vancouver, BC",Kingsway,Joyce,Vancouver,49.2342077,-123.0358375,"Joyce St & Kingsway, Vancouver, BC V5R, Canada"
"Seymour & Robson, Vancouver, BC",Seymour,Robson,Vancouver,49.2807267,-123.1188413,"Robson St & Seymour St, Vancouver, BC V6B 2B9, Canada"
"King Edward & Main, Vancouver, BC",King Edward,Main,Vancouver,49.2488238,-123.1010416,"Main St & E King Edward Ave, Vancouver, BC V5V 3P5, Canada"
"Eastern Dr & Eastern Dr, Port Coquitlam, BC",Eastern Dr,Eastern Dr,Port Coquitlam,49.240384,-122.782861,"Eastern Dr, Port Coquitlam, BC V3C, Canada"
"Richards & Robson, Vancouver, BC",Richards,Robson,Vancouver,49.2800903,-123.117857,"Robson St & Richards St, Vancouver, BC V6B 2B5, Canada"
"B/W Skeena & Cassiar & Hastings, Vancouver, BC",B/W Skeena & Cassiar,Hastings,Vancouver,49.281215,-123.0289839,"Westbound E Hastings St @ Skeena St, Vancouver, BC V5K 2A5, Canada"
"Alberta & 49 Ave, Vancouver, BC",Alberta,49 Ave,Vancouver,49.2260008,-123.1129455,"W 49th Ave & Alberta St, Vancouver, BC V5Y 2Z8, Canada"
"Leslie & 3 Rd, Richmond, BC",Leslie,3 Rd,Richmond,49.179084,-123.13677,"Southbound No. 3 Rd @ Leslie Rd, Richmond, BC V6X 2C4, Canada"
"Victoria & Kingsway, Vancouver, BC",Victoria,Kingsway,Vancouver,49.2451422,-123.0652318,"Kingsway & Victoria Dr, Vancouver, BC V5N 2S9, Canada"
"Georgia & Cambie, Vancouver, BC",Georgia,Cambie,Vancouver,49.2793345,-123.1132596,"W Georgia St & Cambie St, Vancouver, BC V6B 4P4, Canada"
"Marmont & Brunette, Coquitlam, BC",Marmont,Brunette,Coquitlam,49.2387084,-122.8622701,"Brunette Ave & Marmont St, Coquitlam, BC V3K, Canada"
"Osler & 41 Ave, Vancouver, BC",Osler,41 Ave,Vancouver,49.2339751,-123.1303772,"Osler St & W 41st Ave, Vancouver, BC V6M 1W8, Canada"
"Dunsmuir & Burrard, Vancouver, BC",Dunsmuir,Burrard,Vancouver,49.2855457,-123.1193954,"Burrard St & Dunsmuir St, Vancouver, BC V6C, Canada"
"Dunsmuir & Burrard, Vancouver, BC",Dunsmuir,Burrard,Vancouver,49.2855457,-123.1193954,"Burrard St & Dunsmuir St, Vancouver, BC V6C, Canada"
"Blue Mountain & Lougheed Hwy, Coquitlam, BC",Blue Mountain,Lougheed Hwy,Coquitlam,49.2368571,-122.8731394,"Blue Mountain St & Lougheed Hwy, Coquitlam, BC V3K 4H1, Canada"
"11 Ave & Granville, Vancouver, BC",11 Ave,Granville,Vancouver,49.2617187,-123.138627,"Granville St & W 11th Ave, Vancouver, BC V6H 3H4, Canada"
"70 Ave & Oak, Vancouver, BC",70 Ave,Oak,Vancouver,49.208447,-123.130254,"W 70th Ave & Oak St, Vancouver, BC V6P 4B3, Canada"
"Robson & Granville, Vancouver, BC",Robson,Granville,Vancouver,49.2813649,-123.1198429,"Robson St & Granville St, Vancouver, BC V6Z 1A1, Canada"
"Cordova & Main, Vancouver, BC",Cordova,Main,Vancouver,49.2822863,-123.0996086,"Main St & E Cordova St, Vancouver, BC V6A 2S7, Canada"
"Nan & Scott Rd, Surrey, BC",Nan,Scott Rd,Surrey,49.2044407,-122.8741392,"Scott Road Station, Surrey, BC V3V, Canada"
"B/W Woodland & Mclean & Broadway, Vancouver, BC",B/W Woodland & Mclean,Broadway,Vancouver,49.2700626,-123.0734727,"Woodland Dr, Vancouver, BC, Canada"
"300 Block & 8 Av, New Westminster, BC",300 Block,8 Av,New Westminster,49.2179382,-122.9198487,"300 8th Ave, New Westminster, BC V3L 1Y2, Canada"
"Clark & Powell, Vancouver, BC",Clark,Powell,Vancouver,49.2830735,-123.0769795,"Clark Dr & Powell St, Vancouver, BC V5L, Canada"
"Loading Bay 239 & Park Royal Shopping Centre, West Vancouver, BC",Loading Bay 239,Park Royal Shopping Centre,West Vancouver,49.326413,-123.1377791,"2002 Park Royal S, West Vancouver, BC V7T 2W4, Canada"
"Macintosh & Edge, Maple Ridge, BC",Macintosh,Edge,Maple Ridge,49.2196035,-122.5978307,"McIntosh Ave & Edge St, Maple Ridge, BC V2X 6G2, Canada"
"Macintosh & Edge, Maple Ridge, BC",Macintosh,Edge,Maple Ridge,49.2196035,-122.5978307,"McIntosh Ave & Edge St, Maple Ridge, BC V2X 6G2, Canada"
"Cooney & Lansdowne, Richmond, BC",Cooney,Lansdowne,Richmond,49.1737589,-123.13154,"Lansdowne Rd & Cooney Rd, Richmond, BC V6X 3G3, Canada"
"Main & Se Marine, Vancouver, BC",Main,Se Marine,Vancouver,49.2111669,-123.1021914,"Main St & SE Marine Dr, Vancouver, BC V5X 2S4, Canada"
"10 Ave & Granville, Vancouver, BC",10 Ave,Granville,Vancouver,49.2626325,-123.1385995,"Granville St & W 10th Ave, Vancouver, BC V6H 3G7, Canada"
"Main & Broadway, Vancouver, BC",Main,Broadway,Vancouver,49.2629274,-123.1010848,"Main St & E Broadway, Vancouver, BC V5T 1W2, Canada"
"Main & Columbia & Pender, Vancouver, BC",Main & Columbia,Pender,Vancouver,49.2869813,-123.1195787,"1050 W Pender St, Vancouver, BC V6E 3S7, Canada"
"51 Ave & Granville, Vancouver, BC",51 Ave,Granville,Vancouver,49.2250841,-123.1630197,"W 51st Ave, Vancouver, BC, Canada"
"63 Ave & Kinght, Vancouver, BC",63 Ave,Kinght,Vancouver,49.2128735,-123.0771209,"Knight St & E 63rd Ave, Vancouver, BC V5P 2X7, Canada"
"Commercial & Broadway, Vancouver, BC",Commercial,Broadway,Vancouver,49.2623855,-123.0697676,"Commercial Dr & E Broadway, Vancouver, BC V5N 1W2, Canada"
"Carrall & Hastings, Vancouver, BC",Carrall,Hastings,Vancouver,49.281494,-123.1043349,"Carrall St & W Hastings St, Vancouver, BC V6A 1M9, Canada"
"Oxford & Lincoln, Port Coquitlam, BC",Oxford,Lincoln,Port Coquitlam,49.2784044,-122.7672538,"Oxford St & Lincoln Ave, Coquitlam, BC V3B, Canada"
"Bay 2 & Marine Stn, Vancouver, BC",Bay 2,Marine Stn,Vancouver,49.209383,-123.1161159,"Marine Drive Station @ Bay 2, Vancouver, BC V5X 0C7, Canada"
"Bay 2 & Marine Stn, Vancouver, BC",Bay 2,Marine Stn,Vancouver,49.209383,-123.1161159,"Marine Drive Station @ Bay 2, Vancouver, BC V5X 0C7, Canada"
"Commercial & Grandview Hwy, Vancouver, BC",Commercial,Grandview Hwy,Vancouver,49.263731,-123.069751,"Commercial Dr & N Grandview Hwy, Vancouver, BC V5N 4B7, Canada"
"Commercial & 8 Ave, Vancouver, BC",Commercial,8 Ave,Vancouver,49.2630218,-123.0697472,"Commercial Dr & E 8th Ave, Vancouver, BC V5N 4B9, Canada"
"B/W 40 & 41 Ave & Granville, Vancouver, BC",B/W 40 & 41 Ave,Granville,Vancouver,49.2343405,-123.1396258,"Granville St & W 41st Ave, Vancouver, BC V6M 1X7, Canada"
"B/W Skeena & Cassiar & Hastings, Vancouver, BC",B/W Skeena & Cassiar,Hastings,Vancouver,49.281215,-123.0289839,"Westbound E Hastings St @ Skeena St, Vancouver, BC V5K 2A5, Canada"
"6 Ave & Main, Vancouver, BC",6 Ave,Main,Vancouver,49.2655052,-123.1007761,"Main St & E 6th Ave, Vancouver, BC V5T, Canada"
"Adanac & Rupert, Vancouver, BC",Adanac,Rupert,Vancouver,49.2774575,-123.0336015,"Adanac St & Rupert St, Vancouver, BC V5K 4K9, Canada"
"Grandview & Broadway, Vancouver, BC",Grandview,Broadway,Vancouver,49.2627342,-123.0704864,"1669 E Broadway, Vancouver, BC V5N 1V9, Canada"
"16 Ave & Main, Vancouver, BC",16 Ave,Main,Vancouver,49.25658,-123.1012359,"Main St & E 16th Ave, Vancouver, BC V5T 3G7, Canada"
"School & 41 Ave, Vancouver, BC",School,41 Ave,Vancouver,49.2344415,-123.1769115,"3200 W 41st Ave, Vancouver, BC V6N 3E1, Canada"
"Mackay & Central Blvd, Burnaby, BC",Mackay,Central Blvd,Burnaby,49.2128229,-123.0090183,"McKay Park, 7785 McKay Ave, Burnaby, BC V5J 3T4, Canada"
"14 St & 8 Ave, New Westminster, BC",14 St,8 Ave,New Westminster,49.2088252,-122.9372368,"8th Ave & 14th St, New Westminster, BC V3M 2S3, Canada"
"Boundary & Henning, Burnaby, BC",Boundary,Henning,Burnaby,49.263712,-123.0237897,"Henning Dr & Boundary Rd, Vancouver, BC V5M 4V8, Canada"
"King Edward & Granville, Vancouver, BC",King Edward,Granville,Vancouver,49.2493289,-123.1391001,"Granville St & W King Edward Ave, Vancouver, BC V6J, Canada"
"Nan & Riverview Hospital, Coquitlam, BC",Nan,Riverview Hospital,Coquitlam,49.2508389,-122.8061709,"2601 Lougheed Hwy, Coquitlam, BC V3C 4J2, Canada"
"54 Ave & Granville, Vancouver, BC",54 Ave,Granville,Vancouver,49.221693,-123.140057,"Granville St & W 54th Ave, Vancouver, BC V6P 6T8, Canada"
"52 A St & Ladner Trunk Rd, Delta, BC",52 A St,Ladner Trunk Rd,Delta,49.0902354,-123.0784262,"Ladner Trunk Rd & 52a St, Delta, BC V4K 1W3, Canada"
"Sperling & Kensington, Burnaby, BC",Sperling,Kensington,Burnaby,49.2608268,-122.9649572,"Kensington Ave & Sperling Ave, Burnaby, BC V5B 2Z3, Canada"
"Southridge Dr & Griffiths Dr, Burnaby, BC",Southridge Dr,Griffiths Dr,Burnaby,49.205802,-122.9520006,"Griffiths Dr & Southridge Dr, Burnaby, BC V3M 4X4, Canada"
"Denman & Davie, Vancouver, BC",Denman,Davie,Vancouver,49.287273,-123.1418124,"Denman St & Davie St, Vancouver, BC V6G, Canada"
"King Edward & Cambie St, Vancouver, BC",King Edward,Cambie St,Vancouver,49.2489409,-123.1155531,"Cambie St & W King Edward Ave, Vancouver, BC V5Z, Canada"
"Davie & Burrard, Vancouver, BC",Davie,Burrard,Vancouver,49.2790856,-123.1291844,"Burrard St & Davie St, Vancouver, BC V6Z 1Y9, Canada"
"Dunbar & 41 Ave, Vancouver, BC",Dunbar,41 Ave,Vancouver,49.2347729,-123.1852952,"Dunbar St & W 41st Ave, Vancouver, BC V6N 3E7, Canada"
"Bond & Willingdon, Vancouver, BC",Bond,Willingdon,Vancouver,49.2353951,-123.0034,"Bond St & Willingdon Ave, Burnaby, BC V5H 2T3, Canada"
"128 St & 104 Ave, Surrey, BC",128 St,104 Ave,Surrey,49.1916511,-122.8677121,"128 St & 104 Ave, Surrey, BC V3T 2Z4, Canada"
"Smithe & Burrard, Vancouver, BC",Smithe,Burrard,Vancouver,49.2822538,-123.1244464,"Burrard St & Smithe St, Vancouver, BC V6Z 2K7, Canada"
"Ubc & Ubc Diesel Loop, Vancouver, BC",Ubc,Ubc Diesel Loop,Vancouver,49.2675511,-123.2481004,"UBC Exchange, Greater Vancouver A, University Endowment Lands, BC V6T 2B9, Canada"
"Ubc & Ubc Diesel Loop, Vancouver, BC",Ubc,Ubc Diesel Loop,Vancouver,49.2675511,-123.2481004,"UBC Exchange, Greater Vancouver A, University Endowment Lands, BC V6T 2B9, Canada"
"2 Ave & Commercial, Vancouver, BC",2 Ave,Commercial,Vancouver,49.2686998,-123.0696656,"Commercial Dr & E 2nd Ave, Vancouver, BC V5N 4A5, Canada"
"Broadway & Prince Edward, Vancouver, BC",Broadway,Prince Edward,Vancouver,49.2626444,-123.0960029,"Prince Edward St & E Broadway, Vancouver, BC V5T 1W6, Canada"
"Matthews & Granville, Vancouver, BC",Matthews,Granville,Vancouver,49.2531348,-123.138942,"Granville St & Matthews Ave, Vancouver, BC V6H 3K7, Canada"
"Main & Hastings, Vancouver, BC",Main,Hastings,Vancouver,49.2813379,-123.0996501,"Main St & E Hastings St, Vancouver, BC V6A 2T7, Canada"
"Cambie & 5 Rd, Richmond, BC",Cambie,5 Rd,Richmond,49.184574,-123.0915315,"Cambie Rd & No 5 Rd, Richmond, BC V6X 1L6, Canada"
"Vine & 4 Ave, Vancouver, BC",Vine,4 Ave,Vancouver,49.2682096,-123.1575029,"Vine St & W 4th Ave, Vancouver, BC V6K 1P2, Canada"
"Joyce & Vanness, Vancouver, BC",Joyce,Vanness,Vancouver,49.238222,-123.0318373,"Joyce St & Vanness Ave, Vancouver, BC V5R 4H1, Canada"
"Rosser & Hastings, Burnaby, BC",Rosser,Hastings,Burnaby,49.2810243,-123.0058667,"Hastings St & Rosser Ave, Burnaby, BC V5C 2K2, Canada"
"Macdonald & 16 Ave, Vancouver, BC",Macdonald,16 Ave,Vancouver,49.2577712,-123.1684032,"W 16th Ave & Macdonald St, Vancouver, BC V6K 3C5, Canada"
"33 Ave & Oak, Vancouver, BC",33 Ave,Oak,Vancouver,49.2414404,-123.1278087,"W 33rd Ave & Oak St, Vancouver, BC V5Z 2K6, Canada"
"12 Ave & Granville, Vancouver, BC",12 Ave,Granville,Vancouver,49.2608361,-123.1386629,"Granville St & W 12th Ave, Vancouver, BC V6H 1M7, Canada"
"Saba & 3 Rd, Richmond, BC",Saba,3 Rd,Richmond,49.1688243,-123.1364662,"Saba Rd & Number 3 Rd, Richmond, BC V6Y 4B2, Canada"
"33 Ave & Oak, Vancouver, BC",33 Ave,Oak,Vancouver,49.2414404,-123.1278087,"W 33rd Ave & Oak St, Vancouver, BC V5Z 2K6, Canada"
"Sasamat & 10 Ave, Vancouver, BC",Sasamat,10 Ave,Vancouver,49.2638292,-123.2091268,"W 10th Ave & Sasamat St, Vancouver, BC V6R 2J1, Canada"
"Richmond Centre - Bay 7 & 3 Rd, Richmond, BC",Richmond Centre - Bay 7,3 Rd,Richmond,49.1672705,-123.1384481,"6551 Number 3 Rd, Richmond, BC V6Y 2B6, Canada"
"B/W Ontario & Main & Sw Marine, Vancouver, BC",B/W Ontario & Main,Sw Marine,Vancouver,49.2111669,-123.1021914,"Main St & SE Marine Dr, Vancouver, BC V5X 2S4, Canada"
"152 St & 16 Ave, Surrey, BC",152 St,16 Ave,Surrey,49.0311693,-122.8011601,"16 Ave & 152 St, Surrey, BC V4A, Canada"
"Connaught & Granville, Vancouver, BC",Connaught,Granville,Vancouver,49.2362763,-123.1395617,"Granville St & Connaught Dr, Vancouver, BC V6M 3G6, Canada"
"41 Ave & Granville, Vancouver, BC",41 Ave,Granville,Vancouver,49.2343405,-123.1396258,"Granville St & W 41st Ave, Vancouver, BC V6M 1X7, Canada"
"King Edward & Macdonald, Vancouver, BC",King Edward,Macdonald,Vancouver,49.2482155,-123.1678735,"W King Edward Ave & Macdonald St, Vancouver, BC V6L 2P4, Canada"
"Cook & 3 Rd, Richmond, BC",Cook,3 Rd,Richmond,49.1665178,-123.1364742,"Cook Rd & Number 3 Rd, Richmond, BC V6Y 0A2, Canada"
"Track # 5 & Vtc Yard, Vancouver, BC",Track # 5,Vtc Yard,Vancouver,49.2827291,-123.1207375,"Vancouver, BC, Canada"
"Willingdon & Central Blvd, Burnaby, BC",Willingdon,Central Blvd,Burnaby,49.2275783,-123.0075525,"Willingdon Ave & Central Blvd, Burnaby, BC V5H, Canada"
"19 St & Mackay, North Vancouver, BC",19 St,Mackay,North Vancouver,49.3265405,-123.1006043,"MacKay Ave & 19th St W, North Vancouver, BC V7P 2M7, Canada"
"Yukon & Sw Marine, Vancouver, BC",Yukon,Sw Marine,Vancouver,49.210961,-123.1153397,"SW Marine Dr & Yukon St, Vancouver, BC V5X 2R9, Canada"
"Harvest Dr & Ladner Trunk, Delta, BC",Harvest Dr,Ladner Trunk,Delta,49.0901399,-123.0630726,"Ladner Trunk Rd & Harvest Dr, Delta, BC V4K 1X6, Canada"
"Collingwood & Broadway, Vancouver, BC",Collingwood,Broadway,Vancouver,49.2643084,-123.181841,"W Broadway & Collingwood St, Vancouver, BC V6R 2B4, Canada"
"Mcdonald & Kinkaid, Burnaby, BC",Mcdonald,Kinkaid,Burnaby,49.2602993,-123.0055038,"4410 Still Creek Dr, Burnaby, BC V5C 6C6, Canada"
"Hornby & Pender, Vancouver, BC",Hornby,Pender,Vancouver,49.2859316,-123.1168163,"Hornby St & W Pender St, Vancouver, BC V6C 3B2, Canada"
"Bay 4 & Ubc Loop, Vancouver, BC",Bay 4,Ubc Loop,Vancouver,49.26722,-123.2473453,"UBC Exchange Bay 6, University Endowment Lands, BC V6T 2B9, Canada"
"Bay 13 & Ubc Loop, Vancouver, BC",Bay 13,Ubc Loop,Vancouver,49.266049,-123.246605,"Ubc Exchange Bay 13, University Endowment Lands, BC V6T 2B9, Canada"
"53 Rd & Granville, Vancouver, BC",53 Rd,Granville,Vancouver,49.222602,-123.140022,"Granville St & W 53rd Ave, Vancouver, BC V6P 1L1, Canada"
"Abbott & Expo Blvd, Vancouver, BC",Abbott,Expo Blvd,Vancouver,49.2786163,-123.1076226,"Abbott St & Expo Blvd, Vancouver, BC V6B, Canada"
"Commercial & Granview, Vancouver, BC",Commercial,Granview,Vancouver,49.2739592,-123.0695801,"Commercial Dr, Vancouver, BC, Canada"
"Nan & Brentwood Station, Burnaby, BC",Nan,Brentwood Station,Burnaby,49.266396,-123.001829,"Brentwood Town Centre Station, Burnaby, BC V5C, Canada"
"Ladner Exchange & Harvest, Delta, BC",Ladner Exchange,Harvest,Delta,49.0877755,-123.0615365,"Ladner Exchange Bay 6, Delta, BC V4K, Canada"
"6 St & 6 Ave, New Westminster, BC",6 St,6 Ave,New Westminster,49.2131592,-122.9203771,"6th Ave & 6th St, New Westminster, BC V3L 3C2, Canada"
"Pender & Richards, Vancouver, BC",Pender,Richards,Vancouver,49.283396,-123.1128809,"Richards St & W Pender St, Vancouver, BC V6B 3A2, Canada"
"Nan & Purcell Way, North Vancouver, BC",Nan,Purcell Way,North Vancouver,49.317754,-123.019085,"2055 Purcell Way, North Vancouver, BC V7J 3H5, Canada"
"20 St & 7 Ave, New Westminster, BC",20 St,7 Ave,New Westminster,49.2015763,-122.9467546,"20th St & 7th Ave, New Westminster, BC V3M 4W4, Canada"
"Thurlow & Robson, Vancouver, BC",Thurlow,Robson,Vancouver,49.2846045,-123.124824,"Robson St & Thurlow St, Vancouver, BC V6E 1V9, Canada"
"Plateau & Paddock, Coquitlam, BC",Plateau,Paddock,Coquitlam,49.3076095,-122.786711,"Plateau Blvd & Paddock Dr, Coquitlam, BC V3E 3A8, Canada"
"Macdonald & 4 Ave, Vancouver, BC",Macdonald,4 Ave,Vancouver,49.268371,-123.1683159,"Macdonald St & W 4th Ave, Vancouver, BC V6K 3Y2, Canada"
"Clark & Venables, Vancouver, BC",Clark,Venables,Vancouver,49.2767884,-123.0772461,"Venables St & Clark Dr, Vancouver, BC V5L 2G1, Canada"
"Garden Dr & Broadway, Vancouver, BC",Garden Dr,Broadway,Vancouver,49.26213,-123.057623,"Eastbound E Broadway @ Garden Dr, Vancouver, BC V5N 4X6, Canada"
"Seaward Gate & Steveston Hwy, Richmond, BC",Seaward Gate,Steveston Hwy,Richmond,49.133362,-123.099601,"Steveston Hwy & Seaward Gate, Richmond, BC V7A 5J5, Canada"
"Nan & Vtc Yard, Vancouver, BC",Nan,Vtc Yard,Vancouver,49.2827291,-123.1207375,"Vancouver, BC, Canada"
"Joyce & 41 Ave, Vancouver, BC",Joyce,41 Ave,Vancouver,49.2331128,-123.0374799,"Joyce St & E 41st Ave, Vancouver, BC V5R, Canada"
"Robson & Granville, Vancouver, BC",Robson,Granville,Vancouver,49.2813649,-123.1198429,"Robson St & Granville St, Vancouver, BC V6Z 1A1, Canada"
"Robson & Granville, Vancouver, BC",Robson,Granville,Vancouver,49.2813649,-123.1198429,"Robson St & Granville St, Vancouver, BC V6Z 1A1, Canada"
"Langley Bypass & Fraser Hwy, Langley, BC",Langley Bypass,Fraser Hwy,Langley,49.1010481,-122.6433105,"Fraser Hwy & Langley Bypass, Langley City, BC V3A, Canada"
"176 St & Fraser, Surrey, BC",176 St,Fraser,Surrey,49.1380072,-122.7346666,"Fraser Hwy & 176 St, Surrey, BC V3S, Canada"
"8 Av (Bwy Stn) & Commercial, Vancouver, BC",8 Av (Bwy Stn),Commercial,Vancouver,49.262833,-123.0677249,"Southbound N Grandview Hwy @ E 8th Ave, Vancouver, BC V5N, Canada"
"Clark & Broadway, Vancouver, BC",Clark,Broadway,Vancouver,49.26242,-123.0774597,"E Broadway & Clark Dr, Vancouver, BC V5N 1V7, Canada"
"Hornby & Georgia, Vancouver, BC",Hornby,Georgia,Vancouver,49.2837736,-123.1201004,"W Georgia St & Hornby St, Vancouver, BC V6Z 1T7, Canada"
"Willingdon & Hastings, Burnaby, BC",Willingdon,Hastings,Burnaby,49.281019,-123.0031033,"Hastings St & Willingdon Ave, Burnaby, BC V5C 2K3, Canada"
"Davie & Burrard, Vancouver, BC",Davie,Burrard,Vancouver,49.2790856,-123.1291844,"Burrard St & Davie St, Vancouver, BC V6Z 1Y9, Canada"
"Clark & Broadway, Vancouver, BC",Clark,Broadway,Vancouver,49.26242,-123.0774597,"E Broadway & Clark Dr, Vancouver, BC V5N 1V7, Canada"
"200 St & Dunn, Langley, BC",200 St,Dunn,Langley,49.0984571,-122.6688136,"200 St, Langley City, BC, Canada"
"6 Ave & Commercial, Vancouver, BC",6 Ave,Commercial,Vancouver,49.2650804,-123.0697135,"Commercial Dr & E 6th Ave, Vancouver, BC V5N 5K7, Canada"
"Dunsmuir & Richards, Vancouver, BC",Dunsmuir,Richards,Vancouver,49.2823627,-123.1144711,"Richards St & Dunsmuir St, Vancouver, BC V6B, Canada"
"Dunsmuir & Richards, Vancouver, BC",Dunsmuir,Richards,Vancouver,49.2823627,-123.1144711,"Richards St & Dunsmuir St, Vancouver, BC V6B, Canada"
"Nan & Surrey Central Station, Surrey, BC",Nan,Surrey Central Station,Surrey,49.1896129,-122.8479484,"Surrey Central Station, 14479 106 Ave, Surrey, BC V3R 1S9, Canada"
"Newport & Ioco, Port Moody, BC",Newport,Ioco,Port Moody,49.2823298,-122.8279938,"Newport Dr & Ioco Rd, Port Moody, BC V3H 5C3, Canada"
"Devonshire & Granville, Vancouver, BC",Devonshire,Granville,Vancouver,49.2464957,-123.1391784,"Granville St & Devonshire Crescent, Vancouver, BC V6H 3L6, Canada"
"166 St & Fraser Hwy, Surrey, BC",166 St,Fraser Hwy,Surrey,49.15083,-122.7621537,"Fraser Hwy & 166 St, Surrey, BC V4N, Canada"
"Nan & Bedwell, Port Moody, BC",Nan,Bedwell,Port Moody,49.3236672,-122.9104874,"Bedwell Bay, Belcarra, BC, Canada"
"Homer & Pender, Vancouver, BC",Homer,Pender,Vancouver,49.282763,-123.1119172,"Homer St & W Pender St, Vancouver, BC V6B 2V6, Canada"
"Patterson & Rumble, Burnaby, BC",Patterson,Rumble,Burnaby,49.2148569,-123.0123834,"Patterson Ave & Rumble St, Burnaby, BC V5J 1Z7, Canada"
"Clark & Venables, Vancouver, BC",Clark,Venables,Vancouver,49.2767884,-123.0772461,"Venables St & Clark Dr, Vancouver, BC V5L 2G1, Canada"
"King Edward & Oak, Vancouver, BC",King Edward,Oak,Vancouver,49.2491615,-123.1276458,"W King Edward Ave & Oak St, Vancouver, BC V6H, Canada"
"Renfrew & Mcgill, Vancouver, BC",Renfrew,Mcgill,Vancouver,49.2886501,-123.044072,"McGill St & Renfrew St, Vancouver, BC V5K, Canada"
"Vine & 41 Ave, Vancouver, BC",Vine,41 Ave,Vancouver,49.2346593,-123.1599409,"W 41st Ave & Vine St, Vancouver, BC V6M 2A3, Canada"
"Vine & 4 Ave, Vancouver, BC",Vine,4 Ave,Vancouver,49.2682096,-123.1575029,"Vine St & W 4th Ave, Vancouver, BC V6K 1P2, Canada"
"Minto & Granville, Vancouver, BC",Minto,Granville,Vancouver,49.2428032,-123.1392969,"Granville St & Minto Crescent, Vancouver, BC V6H 3M2, Canada"
"Lonsdale & Osborne, North Vancouver, BC",Lonsdale,Osborne,North Vancouver,49.3401776,-123.0719287,"Osborne Rd E & Lonsdale Ave, North Vancouver, BC V7N 2R6, Canada"
"Marine & Garden, North Vancouver, BC",Marine,Garden,North Vancouver,49.3221225,-123.0971961,"Marine Dr, North Vancouver, BC, Canada"
"Bay 3 & Surrey Central Station, Surrey, BC",Bay 3,Surrey Central Station,Surrey,49.188847,-122.848829,"Surrey Central Station Bay 3, Surrey, BC V3T, Canada"
"Bay 3 & Surrey Central Station, Surrey, BC",Bay 3,Surrey Central Station,Surrey,49.188847,-122.848829,"Surrey Central Station Bay 3, Surrey, BC V3T, Canada"
"Pender & Cambie, Vancouver, BC",Pender,Cambie,Vancouver,49.2815618,-123.1099992,"W Pender St & Cambie St, Vancouver, BC V6B, Canada"
"54 Ave & Oak, Vancouver, BC",54 Ave,Oak,Vancouver,49.2215278,-123.1285068,"W 54th Ave & Oak St, Vancouver, BC V6P 1N2, Canada"
"Penticton & Hastings, Vancouver, BC",Penticton,Hastings,Vancouver,49.2811529,-123.0519387,"Penticton St & E Hastings St, Vancouver, BC V5K 1Z6, Canada"
"Leibly & Burris, Burnaby, BC",Leibly,Burris,Burnaby,49.230577,-122.9633118,"Burris St & Leibly Ave, Burnaby, BC V5E 3C7, Canada"
"200 St & 56 Ave, Langley, BC",200 St,56 Ave,Langley,49.1044261,-122.6687157,"56 Ave & 200 St, Langley City, BC V3A, Canada"
"Cherry & Joyce, Vancouver, BC",Cherry,Joyce,Vancouver,49.2354505,-123.034658,"Joyce St & Cherry St, Vancouver, BC V5R, Canada"
"King Edward & Granville, Vancouver, BC",King Edward,Granville,Vancouver,49.2493289,-123.1391001,"Granville St & W King Edward Ave, Vancouver, BC V6J, Canada"
"Oak & Sw Marine, Vancouver, BC",Oak,Sw Marine,Vancouver,49.2046442,-123.1304313,"SW Marine Dr & Oak St, Vancouver, BC V6P, Canada"
"Sw Marine & Granville, Vancouver, BC",Sw Marine,Granville,Vancouver,49.2052762,-123.1405762,"Granville St & SW Marine Dr, Vancouver, BC V6P 5A4, Canada"
"87 Ave & 116 St, Delta, BC",87 Ave,116 St,Delta,49.1610786,-122.9021398,"116 St & 87 Ave, Delta, BC V4C 5V9, Canada"
"52 Ave & Oak, Vancouver, BC",52 Ave,Oak,Vancouver,49.2239194,-123.1284554,"W 52nd Ave & Oak St, Vancouver, BC V6P 1H4, Canada"
"Abbott & Cordova, Vancouver, BC",Abbott,Cordova,Vancouver,49.282952,-123.1067515,"Abbott St & W Cordova St, Vancouver, BC V6B 1C9, Canada"
"King Edward & Granville, Vancouver, BC",King Edward,Granville,Vancouver,49.2493289,-123.1391001,"Granville St & W King Edward Ave, Vancouver, BC V6J, Canada"
"Lougheed Hwy & Willingdon, Burnaby, BC",Lougheed Hwy,Willingdon,Burnaby,49.2663512,-123.0032816,"Willingdon Ave & Lougheed Hwy, Burnaby, BC V5C, Canada"
"Beckwith & Great Canadian Way, Richmond, BC",Beckwith,Great Canadian Way,Richmond,49.193774,-123.124444,"Beckwith Rd & Great Canadian Way, Richmond, BC V6X 2J2, Canada"
"5700 Block & Halifax, Burnaby, BC",5700 Block,Halifax,Burnaby,49.2677607,-122.9812814,"5700 Halifax St, Burnaby, BC V5B 2N7, Canada"
"Hamilton & Pender, Vancouver, BC",Hamilton,Pender,Vancouver,49.2821368,-123.1109512,"W Pender St & Hamilton St, Vancouver, BC V6B 1T1, Canada"
"Robson & Seymour, Vancouver, BC",Robson,Seymour,Vancouver,49.2807267,-123.1188413,"Robson St & Seymour St, Vancouver, BC V6B 2B9, Canada"
"Balaclava & 41 Ave, Vancouver, BC",Balaclava,41 Ave,Vancouver,49.234749,-123.175745,"Balaclava St & W 41st Ave, Vancouver, BC V6N 3E2, Canada"
"Mcbride & Columbia, New Westminster, BC",Mcbride,Columbia,New Westminster,49.2110868,-122.8977013,"Columbia St & McBride Blvd, New Westminster, BC V3L, Canada"
"25 Ave & Granville, Vancouver, BC",25 Ave,Granville,Vancouver,49.249267,-123.138678,"Eastbound W King Edward Ave @ Granville St, Vancouver, BC V6H 3L3, Canada"
"Keefer & Main, Vancouver, BC",Keefer,Main,Vancouver,49.2794823,-123.0997373,"Main St & Keefer St, Vancouver, BC V6A 1X4, Canada"
"Esplanade & Lonsdale, North Vancouver, BC",Esplanade,Lonsdale,North Vancouver,49.3231229,-123.0723529,"Lonsdale Ave, North Vancouver, BC, Canada"
"14 Ave & Granville, Vancouver, BC",14 Ave,Granville,Vancouver,49.2589157,-123.1387331,"Granville St & W 14th Ave, Vancouver, BC V6H 3J9, Canada"
"Cambie & Broadway, Vancouver, BC",Cambie,Broadway,Vancouver,49.2632793,-123.1149908,"Cambie St & W Broadway, Vancouver, BC V5Z 4M5, Canada"
"Austin & Mariner, Coquitlam, BC",Austin,Mariner,Coquitlam,49.2491186,-122.8156593,"Mariner Way & Austin Ave, Coquitlam, BC V3C, Canada"
"Nanaimo & Broadway, Vancouver, BC",Nanaimo,Broadway,Vancouver,49.2620945,-123.0564871,"E Broadway & Nanaimo St, Vancouver, BC V5M 4T9, Canada"
"Burrard & Davie, Vancouver, BC",Burrard,Davie,Vancouver,49.2790856,-123.1291844,"Burrard St & Davie St, Vancouver, BC V6Z 1Y9, Canada"
"Nan & Sw Marine, Vancouver, BC",Nan,Sw Marine,Vancouver,49.3280242,-123.1556756,"1454 Marine Dr, West Vancouver, BC V7T 1B7, Canada"
"Devonshire & Granville, Vancouver, BC",Devonshire,Granville,Vancouver,49.2464957,-123.1391784,"Granville St & Devonshire Crescent, Vancouver, BC V6H 3L6, Canada"
"Knight & 41 Ave, Vancouver, BC",Knight,41 Ave,Vancouver,49.232673,-123.0771252,"Knight St & E 41st Ave, Vancouver, BC V5P, Canada"
"200 St & 56 Ave, Langley, BC",200 St,56 Ave,Langley,49.1044261,-122.6687157,"56 Ave & 200 St, Langley City, BC V3A, Canada"
"6 Ave & 6 St, New Westminster, BC",6 Ave,6 St,New Westminster,49.2131592,-122.9203771,"6th Ave & 6th St, New Westminster, BC V3L 3C2, Canada"
"Granville & 49 Ave, Vancouver, BC",Granville,49 Ave,Vancouver,49.2269604,-123.1398446,"Granville St & W 49th Ave, Vancouver, BC V6M 3E7, Canada"
"Lougheed Hwy & Willingdon, Burnaby, BC",Lougheed Hwy,Willingdon,Burnaby,49.2663512,-123.0032816,"Willingdon Ave & Lougheed Hwy, Burnaby, BC V5C, Canada"
"41 Ave & Fraser, Vancouver, BC",41 Ave,Fraser,Vancouver,49.2329525,-123.0904673,"E 41st Ave & Fraser St, Vancouver, BC V5W 1P4, Canada"
"King George Blvd & Hwy 99, White Rock, BC",King George Blvd,Hwy 99,White Rock,49.0682016,-122.8214796,"BC-99A & King George Blvd, Surrey, BC V4P, Canada"
"Kingsway & Willingdon, Burnaby, BC",Kingsway,Willingdon,Burnaby,49.2302262,-123.0049275,"Willingdon Ave & Kingsway, Burnaby, BC V5H 2A6, Canada"
"Marine  & Bewicke, North Vancouver, BC",Marine ,Bewicke,North Vancouver,49.3200626,-123.0914352,"Marine Dr & Bewicke Ave, North Vancouver, BC V7M 0E7, Canada"
"Thurlow & Robson, Vancouver, BC",Thurlow,Robson,Vancouver,49.2846045,-123.124824,"Robson St & Thurlow St, Vancouver, BC V6E 1V9, Canada"
"72 Ave & 200 St, Langley, BC",72 Ave,200 St,Langley,49.1334568,-122.6682145,"72 Ave & 200 St, Langley Twp, BC V2Y 3B9, Canada"
"Pender & Willingdon, Burnaby, BC",Pender,Willingdon,Burnaby,49.2800953,-123.0031306,"Pender St & Willingdon Ave, Burnaby, BC V5C 2N1, Canada"
"Douglas Cres & 204 St, Langley, BC",Douglas Cres,204 St,Langley,49.103463,-122.6565779,"Douglas Crescent & 204 St, Langley City, BC V3A 5N8, Canada"
"Burrard & Dunsmuir, Vancouver, BC",Burrard,Dunsmuir,Vancouver,49.2855457,-123.1193954,"Burrard St & Dunsmuir St, Vancouver, BC V6C, Canada"
"Hwy Overpass & Willingdon, Burnaby, BC",Hwy Overpass,Willingdon,Burnaby,49.2504925,-123.00441,"Willingdon Ave, Burnaby, BC, Canada"
"54A Ave & 152 St, Surrey, BC",54A Ave,152 St,Surrey,49.1016945,-122.8011502,"54a Ave & 152 St, Surrey, BC V3S 5A5, Canada"
"Surrey Central Loop & Surrey Central Station, Surrey, BC",Surrey Central Loop,Surrey Central Station,Surrey,49.1893835,-122.8478254,"10309-10321 City Pkwy, Surrey, BC V3T 4Y8, Canada"
"Nanaimo & 41 Ave, Vancouver, BC",Nanaimo,41 Ave,Vancouver,49.2328612,-123.0588449,"E 41st Ave & Nanaimo St, Vancouver, BC V5P 4J8, Canada"
"12 Ave & Oak, Vancouver, BC",12 Ave,Oak,Vancouver,49.260642,-123.1267783,"W 12th Ave & Oak St, Vancouver, BC V6H 3N3, Canada"
"Laurel & Sw Marine, Vancouver, BC",Laurel,Sw Marine,Vancouver,49.2063859,-123.1260766,"SW Marine Dr & Laurel St, Vancouver, BC V6P, Canada"
"152 St & 16 Ave, Surrey, BC",152 St,16 Ave,Surrey,49.0311693,-122.8011601,"16 Ave & 152 St, Surrey, BC V4A, Canada"
"41 Ave & Victoria, Vancouver, BC",41 Ave,Victoria,Vancouver,49.2327087,-123.0655369,"E 41st Ave & Victoria Dr, Vancouver, BC V5P, Canada"
"41 Ave & Oak, Vancouver, BC",41 Ave,Oak,Vancouver,49.2340057,-123.1279867,"W 41st Ave & Oak St, Vancouver, BC V5Z 2N5, Canada"
"Main & Hastings, Vancouver, BC",Main,Hastings,Vancouver,49.2813379,-123.0996501,"Main St & E Hastings St, Vancouver, BC V6A 2T7, Canada"
"Broadway & Arbutus, Vancouver, BC",Broadway,Arbutus,Vancouver,49.263783,-123.1529284,"W Broadway & Arbutus St, Vancouver, BC V6J 3Y2, Canada"
"Cordova & Burrard, Vancouver, BC",Cordova,Burrard,Vancouver,49.2876654,-123.1162061,"Burrard St & W Cordova St, Vancouver, BC V6C, Canada"
"Balaclava & Broadway, Vancouver, BC",Balaclava,Broadway,Vancouver,49.2641974,-123.1739738,"W Broadway & Balaclava St, Vancouver, BC V6K 2G9, Canada"
"West Blvd & 41 Ave, Vancouver, BC",West Blvd,41 Ave,Vancouver,49.234625,-123.1555635,"West Blvd & W 41st Ave, Vancouver, BC V6M 1Z6, Canada"
"B/W W Blvd & Yew & 41 Av, Vancouver, BC",B/W W Blvd & Yew,41 Av,Vancouver,49.2342633,-123.1603441,"2348 W 41st Ave, Vancouver, BC V6M 2A4, Canada"
"Homer & Pender, Vancouver, BC",Homer,Pender,Vancouver,49.282763,-123.1119172,"Homer St & W Pender St, Vancouver, BC V6B 2V6, Canada"
"Nan & Tower Rd, Burnaby, BC",Nan,Tower Rd,Burnaby,49.2767742,-122.9093753,"Tower Rd, Burnaby, BC V5A, Canada"
"Willingdon & Pender, Burnaby, BC",Willingdon,Pender,Burnaby,49.2800953,-123.0031306,"Pender St & Willingdon Ave, Burnaby, BC V5C 2N1, Canada"
"18 Ave & Cambie, Vancouver, BC",18 Ave,Cambie,Vancouver,49.2548733,-123.1151876,"Cambie St & W 18th Ave, Vancouver, BC V5Z 3B7, Canada"
"12 Ave & Oak, Vancouver, BC",12 Ave,Oak,Vancouver,49.260642,-123.1267783,"W 12th Ave & Oak St, Vancouver, BC V6H 3N3, Canada"
"Hastings & Boundary, Burnaby, BC",Hastings,Boundary,Burnaby,49.2811438,-123.0236986,"Hastings St & Boundary Rd, Vancouver, BC V5K 2B1, Canada"
"West Blvd & 41 Ave, Vancouver, BC",West Blvd,41 Ave,Vancouver,49.234625,-123.1555635,"West Blvd & W 41st Ave, Vancouver, BC V6M 1Z6, Canada"
"Georgia & Burrard St, Vancouver, BC",Georgia,Burrard St,Vancouver,49.284448,-123.1211287,"Burrard St & W Georgia St, Vancouver, BC V6E 3N9, Canada"
"41 Ave & Oak, Vancouver, BC",41 Ave,Oak,Vancouver,49.2340057,-123.1279867,"W 41st Ave & Oak St, Vancouver, BC V5Z 2N5, Canada"
"39 Ave & Main, Vancouver, BC",39 Ave,Main,Vancouver,49.2354289,-123.1016113,"Main St & E 39th Ave, Vancouver, BC V5W 1K1, Canada"
"Rupert & Kingsway, Vancouver, BC",Rupert,Kingsway,Vancouver,49.23601,-123.0421985,"Kingsway & Rupert St, Vancouver, BC V5R 5J6, Canada"
"5 Ave & Granville, Vancouver, BC",5 Ave,Granville,Vancouver,49.2667684,-123.1384187,"Granville St & W 5th Ave, Vancouver, BC V6H 4G3, Canada"
"Hastings & Howe, Vancouver, BC",Hastings,Howe,Vancouver,49.2859526,-123.1148569,"W Hastings St & Howe St, Vancouver, BC V6C 2X1, Canada"
"Patterson & Marine, Burnaby, BC",Patterson,Marine,Burnaby,49.2092536,-123.0124219,"Marine Dr & Patterson Ave, Burnaby, BC V5J 3E3, Canada"
"Burrard & Smithe, Vancouver, BC",Burrard,Smithe,Vancouver,49.2822538,-123.1244464,"Burrard St & Smithe St, Vancouver, BC V6Z 2K7, Canada"
"Fraserview & Victoria, Vancouver, BC",Fraserview,Victoria,Vancouver,49.2122251,-123.066062,"Fraserview Dr & Victoria Dr, Vancouver, BC V5P 3T2, Canada"
"41 Ave & Main, Vancouver, BC",41 Ave,Main,Vancouver,49.2330433,-123.101514,"Main St & E 41st Ave, Vancouver, BC V5W, Canada"
"Pender & Cambie, Vancouver, BC",Pender,Cambie,Vancouver,49.2815618,-123.1099992,"W Pender St & Cambie St, Vancouver, BC V6B, Canada"
"St Andrews & 3 St, North Vancouver, BC",St Andrews,3 St,North Vancouver,49.3108143,-123.0709754,"St Andrews Ave & E 3rd St, North Vancouver, BC V7L 4P5, Canada"
"Minoru & Granville, Richmond, BC",Minoru,Granville,Richmond,49.1626735,-123.1430246,"Minoru Gate & Granville Ave, Richmond, BC V6Y 3Y6, Canada"
"Maple & 41 Ave, Vancouver, BC",Maple,41 Ave,Vancouver,49.234468,-123.1520792,"W 41st Ave & Maple St, Vancouver, BC V6M 1Y8, Canada"
"100 Av & 132 St, Surrey, BC",100 Av,132 St,Surrey,49.184382,-122.8565405,"100 Ave & 132 St, Surrey, BC V3T 1H5, Canada"
"King Edward & Macdonald, Vancouver, BC",King Edward,Macdonald,Vancouver,49.2482155,-123.1678735,"W King Edward Ave & Macdonald St, Vancouver, BC V6L 2P4, Canada"
"6 Ave & Vcc Clark Station, Vancouver, BC",6 Ave,Vcc Clark Station,Vancouver,49.2658836,-123.0790501,"VCC-Clark Station, Vancouver, BC V5T 0B1, Canada"
"Davie & Howe, Vancouver, BC",Davie,Howe,Vancouver,49.277807,-123.1272001,"Davie St & Howe St, Vancouver, BC V6Z 0A8, Canada"
"Davie & Howe, Vancouver, BC",Davie,Howe,Vancouver,49.277807,-123.1272001,"Davie St & Howe St, Vancouver, BC V6Z 0A8, Canada"
"Comox & Denman, Vancouver, BC",Comox,Denman,Vancouver,49.2886941,-123.1396737,"Denman St & Comox St, Vancouver, BC V6G 2M4, Canada"
"Skytrain & Burrard, Vancouver, BC",Skytrain,Burrard,Vancouver,49.2854669,-123.1201261,"Burrard, Vancouver, BC V6C 0A4, Canada"
"West Blvd & 41, Vancouver, BC",West Blvd,41,Vancouver,49.227141,-123.155166,"West Blvd, Vancouver, BC, Canada"
"Bute & Pender, Vancouver, BC",Bute,Pender,Vancouver,49.2883949,-123.1233904,"Bute St & W Pender St, Vancouver, BC V6E 2V2, Canada"
"Dundas & Nanaimo, Vancouver, BC",Dundas,Nanaimo,Vancouver,49.2847545,-123.0565517,"Dundas St & Nanaimo St, Vancouver, BC V5L 4Z6, Canada"
"3 Ave & Clarke, Vancouver, BC",3 Ave,Clarke,Vancouver,49.2685972,-123.1425753,"1698 W 3rd Ave, Vancouver, BC V6J 1K3, Canada"
"Kootenay Loop & Hastings, Vancouver, BC",Kootenay Loop,Hastings,Vancouver,49.2811202,-123.0256976,"Kootenay St & E Hastings St, Vancouver, BC V5K 2A9, Canada"
"Commercial & Hastings, Vancouver, BC",Commercial,Hastings,Vancouver,49.2812892,-123.070446,"Commercial Dr & E Hastings St, Vancouver, BC V5L 3V6, Canada"
"Finley & Prairie, Coquitlam, BC",Finley,Prairie,Coquitlam,49.2712352,-122.7426583,"Prairie Ave & Finley St, Port Coquitlam, BC V3B 1S3, Canada"
"4 Ave & Commercial, Vancouver, BC",4 Ave,Commercial,Vancouver,49.2668846,-123.069682,"Commercial Dr & E 4th Ave, Vancouver, BC V5N 4A9, Canada"
"Hastings & Howe, Vancouver, BC",Hastings,Howe,Vancouver,49.2859526,-123.1148569,"W Hastings St & Howe St, Vancouver, BC V6C 2X1, Canada"
"Clark & Broadway, Vancouver, BC",Clark,Broadway,Vancouver,49.26242,-123.0774597,"E Broadway & Clark Dr, Vancouver, BC V5N 1V7, Canada"
"Doman & 45 Ave, Vancouver, BC",Doman,45 Ave,Vancouver,49.2292636,-123.0364222,"Doman St & E 45th Ave, Vancouver, BC V5R 3E5, Canada"
"Farebox Island & Ptc  Yard, Port Coquitlam, BC",Farebox Island,Ptc  Yard,Port Coquitlam,49.2628382,-122.7810708,"Port Coquitlam, BC, Canada"
"Penticton & Broadway, Vancouver, BC",Penticton,Broadway,Vancouver,49.262111,-123.051889,"Westbound E Broadway @ Penticton St, Vancouver, BC V5M 4G6, Canada"
"Arbutus & Broadway, Vancouver, BC",Arbutus,Broadway,Vancouver,49.2637721,-123.1523414,"W Broadway & Arbutus Greenway, Vancouver, BC V6J 1Z4, Canada"
"Main & Hastings, Vancouver, BC",Main,Hastings,Vancouver,49.2813379,-123.0996501,"Main St & E Hastings St, Vancouver, BC V6A 2T7, Canada"
"110 Ave & Scott Rd, Surrey, BC",110 Ave,Scott Rd,Surrey,49.2028648,-122.8781821,"110 Ave & Scott Rd, Surrey, BC V3V, Canada"
"Cassiar Connector & Hastings, Vancouver, BC",Cassiar Connector,Hastings,Vancouver,49.2810601,-123.0313874,"Cassiar Connector & E Hastings St, Vancouver, BC V5K, Canada"
"2Nd Narrows Bridge & Second  Narrows Bridge, North Vancouver, BC",2Nd Narrows Bridge,Second  Narrows Bridge,North Vancouver,49.2958376,-123.0262968,"Iron Workers Memorial Bridge, North Vancouver, BC, Canada"
"135 St & 104 Ave, Surrey, BC",135 St,104 Ave,Surrey,49.1916875,-122.8476917,"135 St & 104 Ave, Surrey, BC V3T 1W1, Canada"
"33 Ave & Granville, Vancouver, BC",33 Ave,Granville,Vancouver,49.2418674,-123.1393324,"Granville St & W 33rd Ave, Vancouver, BC V6H 3M2, Canada"
"Cambie & Hastings, Vancouver, BC",Cambie,Hastings,Vancouver,49.2825406,-123.1095738,"Cambie St & W Hastings St, Vancouver, BC V6B 2N4, Canada"
"Granville & Broadway, Vancouver, BC",Granville,Broadway,Vancouver,49.2635611,-123.1385968,"Granville St & W Broadway, Vancouver, BC V6H 3G7, Canada"
"Lakewood & Hastings, Vancouver, BC",Lakewood,Hastings,Vancouver,49.2812088,-123.0616957,"E Hastings St & Lakewood Dr, Vancouver, BC V5L 1V2, Canada"
"Pender & Burrard, Vancouver, BC",Pender,Burrard,Vancouver,49.2865925,-123.117793,"Burrard St & W Pender St, Vancouver, BC V6C 1M2, Canada"
"Pender & Burrard, Vancouver, BC",Pender,Burrard,Vancouver,49.2865925,-123.117793,"Burrard St & W Pender St, Vancouver, BC V6C 1M2, Canada"
"12 Ave & Oak, Vancouver, BC",12 Ave,Oak,Vancouver,49.260642,-123.1267783,"W 12th Ave & Oak St, Vancouver, BC V6H 3N3, Canada"
"Kingsway & Willingdon, Burnaby, BC",Kingsway,Willingdon,Burnaby,49.2302262,-123.0049275,"Willingdon Ave & Kingsway, Burnaby, BC V5H 2A6, Canada"
"Helmcken & Granville, Vancouver, BC",Helmcken,Granville,Vancouver,49.278201,-123.1245934,"Granville St & Helmcken St, Vancouver, BC V6B, Canada"
"Crown & 16 Ave, Vancouver, BC",Crown,16 Ave,Vancouver,49.2581429,-123.19354,"W 16th Ave & Crown St, Vancouver, BC V6R 3C9, Canada"
"62 Ave & Granville, Vancouver, BC",62 Ave,Granville,Vancouver,49.215036,-123.140309,"Granville St & W 62nd Ave, Vancouver, BC V6P 2E8, Canada"
"Richards & Hastings, Vancouver, BC",Richards,Hastings,Vancouver,49.283796,-123.1124201,"Southbound Richards St @ W Hastings St, Richards St Hastings St, Vancouver, BC V6B 1L6, Canada"
"Wallace & 10 Ave, Vancouver, BC",Wallace,10 Ave,Vancouver,49.2635657,-123.1908743,"W 10th Ave & Wallace St, Vancouver, BC V6R 3V6, Canada"
"Esplanade & Lonsdale, North Vancouver, BC",Esplanade,Lonsdale,North Vancouver,49.3231229,-123.0723529,"Lonsdale Ave, North Vancouver, BC, Canada"
"Davie & Howe, Vancouver, BC",Davie,Howe,Vancouver,49.277807,-123.1272001,"Davie St & Howe St, Vancouver, BC V6Z 0A8, Canada"
"Harrison Loop & Harrison Loop, Vancouver, BC",Harrison Loop,Harrison Loop,Vancouver,49.2100999,-123.0646664,"Harrison Loop, Vancouver, BC V5P, Canada"
"Harrison Loop & Harrison Loop, Vancouver, BC",Harrison Loop,Harrison Loop,Vancouver,49.2100999,-123.0646664,"Harrison Loop, Vancouver, BC V5P, Canada"
"Kootney Loop & Hastings, Burnaby, BC",Kootney Loop,Hastings,Burnaby,49.2811202,-123.0256976,"Kootenay St & E Hastings St, Vancouver, BC V5K 2A9, Canada"
"67 Ave & Granville, Vancouver, BC",67 Ave,Granville,Vancouver,49.2108823,-123.1404456,"Granville St & W 67th Ave, Vancouver, BC V6P 4Z7, Canada"
"Mackenzie & Broadway, Vancouver, BC",Mackenzie,Broadway,Vancouver,49.2641233,-123.1700814,"W Broadway & MacKenzie St, Vancouver, BC V6K 2G6, Canada"
"Cambie & 3 Rd, Richmond, BC",Cambie,3 Rd,Richmond,49.1842271,-123.1360765,"4000 Number 3 Rd, Richmond, BC V6X 0J8, Canada"
"Onramp & Lions Gate Bridge, North Vancouver, BC",Onramp,Lions Gate Bridge,North Vancouver,49.3146651,-123.1392099,"Lions Gate Bridge, Lions Gate Bridge Rd, Vancouver, BC, Canada"
"Courtney & 10 Ave, Vancouver, BC",Courtney,10 Ave,Vancouver,49.2629744,-123.1600625,"W 10th Ave, Vancouver, BC, Canada"
"Garden & Marine, North Vancouver, BC",Garden,Marine,North Vancouver,49.3197978,-123.0920473,"705 3rd St W, North Vancouver, BC V7M 3E3, Canada"
"Curtis & Kensington, Burnaby, BC",Curtis,Kensington,Burnaby,49.2752175,-122.9700789,"Kensington Ave & Curtis St, Burnaby, BC V5B 4B7, Canada"
"Highview & Cecile, Port Moody, BC",Highview,Cecile,Port Moody,49.2749812,-122.8723631,"Cecile Dr & Highview Pl, Port Moody, BC V3H 1M4, Canada"
"Fir & 4 Ave, Vancouver, BC",Fir,4 Ave,Vancouver,49.268011,-123.1408787,"Fir St & W 4th Ave, Vancouver, BC V6J 1L8, Canada"
"Connaught & Granville, Vancouver, BC",Connaught,Granville,Vancouver,49.2362763,-123.1395617,"Granville St & Connaught Dr, Vancouver, BC V6M 3G6, Canada"
"Connaught & Granville, Vancouver, BC",Connaught,Granville,Vancouver,49.2362763,-123.1395617,"Granville St & Connaught Dr, Vancouver, BC V6M 3G6, Canada"
"Cambie & Hastings, Vancouver, BC",Cambie,Hastings,Vancouver,49.2825406,-123.1095738,"Cambie St & W Hastings St, Vancouver, BC V6B 2N4, Canada"
"98 Ave & Scott Rd, Surrey, BC",98 Ave,Scott Rd,Surrey,49.1807207,-122.8902628,"98 Ave & Scott Rd, Surrey, BC V3V, Canada"
"Alma & Broadway, Vancouver, BC",Alma,Broadway,Vancouver,49.2643679,-123.1858577,"W Broadway & Alma St, Vancouver, BC V6R 2B7, Canada"
"Charleson & Moberly, Vancouver, BC",Charleson,Moberly,Vancouver,49.2662782,-123.1205437,"Charleson & Moberly Road, Vancouver, BC V5Z, Canada"
"Bidwell & Davie, Vancouver, BC",Bidwell,Davie,Vancouver,49.2862473,-123.1402213,"Bidwell St & Davie St, Vancouver, BC V6G 2K6, Canada"
"Davie & Burrard, Vancouver, BC",Davie,Burrard,Vancouver,49.2790856,-123.1291844,"Burrard St & Davie St, Vancouver, BC V6Z 1Y9, Canada"
"Maple & 41 Av, Vancouver, BC",Maple,41 Av,Vancouver,49.234468,-123.1520792,"W 41st Ave & Maple St, Vancouver, BC V6M 1Y8, Canada"
"Yew & 4 Ave, Vancouver, BC",Yew,4 Ave,Vancouver,49.2681826,-123.1551591,"Yew St & W 4th Ave, Vancouver, BC V6K 1N9, Canada"
"29 Ave & Earls, Vancouver, BC",29 Ave,Earls,Vancouver,49.2639421,-123.1414697,"1601 W Broadway, Vancouver, BC V6J 1W9, Canada"
"Austin & Gatineau, Burnaby, BC",Austin,Gatineau,Burnaby,49.2502266,-122.8958023,"9855 Austin Ave, Burnaby, BC V3J 1N4, Canada"
"Commercial  & Broadway, Vancouver, BC",Commercial ,Broadway,Vancouver,49.2623855,-123.0697676,"Commercial Dr & E Broadway, Vancouver, BC V5N 1W2, Canada"
"South Fence & Surrey Central Station, Surrey, BC",South Fence,Surrey Central Station,Surrey,49.1896129,-122.8479484,"Surrey Central Station, 14479 106 Ave, Surrey, BC V3R 1S9, Canada"
"Fir & 10 Avenue, Vancouver, BC",Fir,10 Avenue,Vancouver,49.2626762,-123.1410292,"W 10th Ave & Fir St, Vancouver, BC V6J 3B9, Canada"
"Mclean & Hastings, Vancouver, BC",Mclean,Hastings,Vancouver,49.2813328,-123.0741047,"McLean Dr & E Hastings St, Vancouver, BC V5L 1S4, Canada"
"49 Ave & Granville, Vancouver, BC",49 Ave,Granville,Vancouver,49.2269604,-123.1398446,"Granville St & W 49th Ave, Vancouver, BC V6M 3E7, Canada"
"Granville & 71 Ave, Vancouver, BC",Granville,71 Ave,Vancouver,49.2070746,-123.1406631,"Granville St & W 71st Ave, Vancouver, BC V6P 5A3, Canada"
"E 15 Av & Nanaimo St, Vancouver, BC",E 15 Av,Nanaimo St,Vancouver,49.2567449,-123.0566859,"E 15th Ave & Nanaimo St, Vancouver, BC V5N 5G5, Canada"
"Thunderbird & Wesbrook Mall, Vancouver, BC",Thunderbird,Wesbrook Mall,Vancouver,49.2615682,-123.2413719,"Wesbrook Mall & Thunderbird Blvd, University Endowment Lands, BC V6T, Canada"
"Stratford & Hastings, Burnaby, BC",Stratford,Hastings,Burnaby,49.280335,-122.9768506,"Stratford Ave & Hastings St, Burnaby, BC V5B 4Z4, Canada"
"Darby & River Rd, Maple Ridge, BC",Darby,River Rd,Maple Ridge,49.2138278,-122.6263645,"Darby St & River Rd, Maple Ridge, BC V2X 2B4, Canada"
"23 Ave & Knight, Vancouver, BC",23 Ave,Knight,Vancouver,49.2498945,-123.0761922,"Knight St & E 23rd Ave, Vancouver, BC V5V 3E4, Canada"
"Oak & Broadway, Vancouver, BC",Oak,Broadway,Vancouver,49.2633546,-123.1266122,"W Broadway & Oak St, Vancouver, BC V6H 1E6, Canada"
"Sfu & Tower, Burnaby, BC",Sfu,Tower,Burnaby,49.2800436,-122.9251736,"Residence Administration, 8888 University Dr W Building A1001, Burnaby, BC V5A 1S6, Canada"
"Port Haney Train Stn & River Rd, Maple Ridge, BC",Port Haney Train Stn,River Rd,Maple Ridge,49.2122629,-122.6051936,"Port Haney Station, 22300 River Rd, Maple Ridge, BC V2X 2C5, Canada"
"16 Ave & Mcdonald, Vancouver, BC",16 Ave,Mcdonald,Vancouver,49.2578375,-123.1688336,"16th & MacDonald, 2805 W 16th Ave, Vancouver, BC V6K 3C5, Canada"
"Nanaimo & Hastings, Vancouver, BC",Nanaimo,Hastings,Vancouver,49.2811693,-123.0566843,"E Hastings St & Nanaimo St, Vancouver, BC V5L 1V5, Canada"
"Nanaimo & Hastings, Vancouver, BC",Nanaimo,Hastings,Vancouver,49.2811693,-123.0566843,"E Hastings St & Nanaimo St, Vancouver, BC V5L 1V5, Canada"
"32 Ave & Granville, Vancouver, BC",32 Ave,Granville,Vancouver,49.2436718,-123.1392696,"Granville St & W 32nd Ave, Vancouver, BC V6J 3A5, Canada"
"Lions Gate Bridge & Lions Gate Bridge Rd, West Vancouver, BC",Lions Gate Bridge,Lions Gate Bridge Rd,West Vancouver,49.3146651,-123.1392099,"Lions Gate Bridge, Lions Gate Bridge Rd, Vancouver, BC, Canada"
"122A Ave & Harris Rd, Maple Ridge, BC",122A Ave,Harris Rd,Maple Ridge,49.2246108,-122.6894819,"122a Ave & Harris Rd, Pitt Meadows, BC V3Y 2E9, Canada"
"203 St & 56 Ave, Langley, BC",203 St,56 Ave,Langley,49.1041223,-122.6602098,"203 St & 56 Ave, Langley City, BC V3A 4B3, Canada"
"Balaclava & 4 Ave, Vancouver, BC",Balaclava,4 Ave,Vancouver,49.268443,-123.173807,"Balaclava St & W 4th Ave, Vancouver, BC V6K 4C2, Canada"
"Hillcrest & Foster, Coquitlam, BC",Hillcrest,Foster,Coquitlam,49.2560348,-122.8353734,"Foster Ave & Hillcrest St, Coquitlam, BC V3J, Canada"
"Drake & Granville, Vancouver, BC",Drake,Granville,Vancouver,49.2761359,-123.1278309,"Granville St & Drake St, Vancouver, BC V6Z 2W6, Canada"
"Lions Way Bus Stop & Shaughnessy, Port Coquitlam, BC",Lions Way Bus Stop,Shaughnessy,Port Coquitlam,49.265899,-122.777782,"Northbound Shaughnessy St @ Lions Way, Port Coquitlam, BC V3C 6K5, Canada"
"Coppersmith Pl & Steveston Hwy, Richmond, BC",Coppersmith Pl,Steveston Hwy,Richmond,49.1334311,-123.0968627,"Steveston Hwy & Coppersmith Pl, Richmond, BC V7A 1N8, Canada"
"Cumberland & Columbia, New Westminster, BC",Cumberland,Columbia,New Westminster,49.2204853,-122.893006,"E Columbia St & Cumberland St, New Westminster, BC V3L 3V8, Canada"
"12 Ave & 6 St, New Westminster, BC",12 Ave,6 St,New Westminster,49.2205175,-122.9295202,"12th Ave & 6th St, Burnaby, BC V3N 4S3, Canada"
"Burrard & Davie, Vancouver, BC",Burrard,Davie,Vancouver,49.2790856,-123.1291844,"Burrard St & Davie St, Vancouver, BC V6Z 1Y9, Canada"
"Ubc Loop & Ubc  Loop, Vancouver, BC",Ubc Loop,Ubc  Loop,Vancouver,49.2675511,-123.2481004,"UBC Exchange, Greater Vancouver A, University Endowment Lands, BC V6T 2B9, Canada"
"Ubc  Loop & Ubc Loop, Vancouver, BC",Ubc  Loop,Ubc Loop,Vancouver,49.2675511,-123.2481004,"UBC Exchange, Greater Vancouver A, University Endowment Lands, BC V6T 2B9, Canada"
"Kingsway & Victoria, Vancouver, BC",Kingsway,Victoria,Vancouver,49.2451422,-123.0652318,"Kingsway & Victoria Dr, Vancouver, BC V5N 2S9, Canada"
"20 St & 8 Ave, New Westminster, BC",20 St,8 Ave,New Westminster,49.2028481,-122.9483575,"8th Ave & 20th St, New Westminster, BC V3M 2T2, Canada"
"Hawks & Prior, Vancouver, BC",Hawks,Prior,Vancouver,49.2765445,-123.0873311,"Hawks Ave & Prior St, Vancouver, BC V6A 2G9, Canada"
"Cambie Rd & Hwy 99, Richmond, BC",Cambie Rd,Hwy 99,Richmond,49.1847174,-123.0699628,"Cambie Rd, Richmond, BC, Canada"
"Grant & Clark, Vancouver, BC",Grant,Clark,Vancouver,49.2715157,-123.07734,"Grant St & Clark Dr, Vancouver, BC V5L 3K9, Canada"
"Southoaks & Kingsway, Burnaby, BC",Southoaks,Kingsway,Burnaby,49.2185005,-122.9647969,"Southoaks Crescent & Kingsway, Burnaby, BC V5E 1E2, Canada"
"12 Ave & Clark, Vancouver, BC",12 Ave,Clark,Vancouver,49.2595832,-123.0774411,"E 12th Ave & Clark Dr, Vancouver, BC V5N 1Z9, Canada"
"King Edward & Brunette, Coquitlam, BC",King Edward,Brunette,Coquitlam,49.2387084,-122.8622701,"Brunette Ave & King Edward St, Coquitlam, BC V3K, Canada"
"Trimble & 10 Av, Vancouver, BC",Trimble,10 Av,Vancouver,49.263798,-123.206057,"Trimble St & W 10th Ave, Vancouver, BC V6R 3Z7, Canada"
"Queens & St Johns, Port Moody, BC",Queens,St Johns,Port Moody,49.2767262,-122.8586212,"St Johns St & Queens St, Port Moody, BC V3H 2B1, Canada"
"Terminal & Station, Vancouver, BC",Terminal,Station,Vancouver,49.2726501,-123.0985873,"Station St & Terminal Ave, Vancouver, BC V6A, Canada"
"Maple & 41 Ave, Vancouver, BC",Maple,41 Ave,Vancouver,49.234468,-123.1520792,"W 41st Ave & Maple St, Vancouver, BC V6M 1Y8, Canada"
"Terminal & Station, Vancouver, BC",Terminal,Station,Vancouver,49.2726501,-123.0985873,"Station St & Terminal Ave, Vancouver, BC V6A, Canada"
"National & Main, Vancouver, BC",National,Main,Vancouver,49.2877251,-123.1139605,"999 Canada Pl, Vancouver, BC V6C 3B5, Canada"
"Pender & Abbott, Vancouver, BC",Pender,Abbott,Vancouver,49.2810977,-123.1075616,"Abbott St & W Pender St, Vancouver, BC V6B 1R3, Canada"
"Beckwith & Great Canadian Way, Richmond, BC",Beckwith,Great Canadian Way,Richmond,49.193774,-123.124444,"Beckwith Rd & Great Canadian Way, Richmond, BC V6X 2J2, Canada"
"Knight & 33 Ave, Vancouver, BC",Knight,33 Ave,Vancouver,49.2402189,-123.076453,"Knight St & E 33rd Ave, Vancouver, BC V5V 3B9, Canada"
"142 St & 104 Ave, Surrey, BC",142 St,104 Ave,Surrey,49.191463,-122.8286245,"142 St & 104 Ave, Surrey, BC V3T 5W7, Canada"
"Saba & 3 Rd, Richmond, BC",Saba,3 Rd,Richmond,49.1688243,-123.1364662,"Saba Rd & Number 3 Rd, Richmond, BC V6Y 4B2, Canada"
"Coquitlam Station & Coquitlam Station, Coquitlam, BC",Coquitlam Station,Coquitlam Station,Coquitlam,49.2795306,-122.7981541,"2929 Barnet Hwy, Coquitlam, BC V3B 5R5, Canada"
"12 Av & Oak St, Vancouver, BC",12 Av,Oak St,Vancouver,49.260642,-123.1267783,"W 12th Ave & Oak St, Vancouver, BC V6H 3N3, Canada"
"Vine & 4 Ave, Vancouver, BC",Vine,4 Ave,Vancouver,49.2682096,-123.1575029,"Vine St & W 4th Ave, Vancouver, BC V6K 1P2, Canada"
"Alexander & Water, Vancouver, BC",Alexander,Water,Vancouver,49.2835171,-123.1026634,"58 Alexander St, Vancouver, BC V6A 1B4, Canada"
"Hastings & Boundary, Burnaby, BC",Hastings,Boundary,Burnaby,49.2811438,-123.0236986,"Hastings St & Boundary Rd, Vancouver, BC V5K 2B1, Canada"
"Burrard & 16 Ave, Vancouver, BC",Burrard,16 Ave,Vancouver,49.2571739,-123.1460015,"Burrard St & W 16th Ave, Vancouver, BC V6J 2M2, Canada"
"William & Clark, Vancouver, BC",William,Clark,Vancouver,49.2740596,-123.0772973,"William St & Clark Dr, Vancouver, BC V6A 2J2, Canada"
"70 Ave & Granville, Vancouver, BC",70 Ave,Granville,Vancouver,49.2085409,-123.1406173,"Granville St & W 70th Ave, Vancouver, BC V6P 4Z9, Canada"
"70 Ave & Granville, Vancouver, BC",70 Ave,Granville,Vancouver,49.2085409,-123.1406173,"Granville St & W 70th Ave, Vancouver, BC V6P 4Z9, Canada"
"10 Ave & Alma, Vancouver, BC",10 Ave,Alma,Vancouver,49.2634805,-123.1858885,"W 10th Ave & Alma St, Vancouver, BC V6R 2G3, Canada"
"23 Ave & Oak, Vancouver, BC",23 Ave,Oak,Vancouver,49.2508015,-123.127421,"W 23rd Ave & Oak St, Vancouver, BC V5Z 2B3, Canada"
"Bay 5 & Langley Center, Langley, BC",Bay 5,Langley Center,Langley,49.106449,-122.654727,"Langley Centre @ Bay 5, Langley City, BC V3A 4L9, Canada"
"Warwick & Hastings, Burnaby, BC",Warwick,Hastings,Burnaby,49.2803329,-122.9781792,"Warwick Ave & Hastings St, Burnaby, BC V5B 4Z4, Canada"
"Bay 11 & 12 & Surrey Central Station, Surrey, BC",Bay 11 & 12,Surrey Central Station,Surrey,49.189406,-122.847763,"Surrey Central Station Bay 11, Surrey, BC V3T 4C3, Canada"
" Bay 11 & 12 & Surrey Central Station, Surrey, BC", Bay 11 & 12,Surrey Central Station,Surrey,49.189406,-122.847763,"Surrey Central Station Bay 11, Surrey, BC V3T 4C3, Canada"
"228 St & Dewdney  Rd, Maple Ridge, BC",228 St,Dewdney  Rd,Maple Ridge,49.2197687,-122.5906858,"11965 228 St, Maple Ridge, BC V2X 6M1, Canada"
"28 Av & Granville, Vancouver, BC",28 Av,Granville,Vancouver,49.2464957,-123.1391784,"Granville St & W 28th Ave, Vancouver, BC V6H 3L6, Canada"
"Heather & Broadway, Vancouver, BC",Heather,Broadway,Vancouver,49.2632911,-123.1198761,"W Broadway & Heather St, Vancouver, BC V5Z 3J2, Canada"
"57 Ave & Granville, Vancouver, BC",57 Ave,Granville,Vancouver,49.2193569,-123.140155,"Granville St & W 57th Ave, Vancouver, BC V6P 4X6, Canada"
"Chester & 49 Ave, Vancouver, BC",Chester,49 Ave,Vancouver,49.2254424,-123.0893784,"E 49th Ave & Chester St, Vancouver, BC V5W 3C3, Canada"
"18 Av & Cambie, Vancouver, BC",18 Av,Cambie,Vancouver,49.2548733,-123.1151876,"Cambie St & W 18th Ave, Vancouver, BC V5Z 3B7, Canada"
"Carrall & Hastings, Vancouver, BC",Carrall,Hastings,Vancouver,49.281494,-123.1043349,"Carrall St & W Hastings St, Vancouver, BC V6A 1M9, Canada"
"Ubc Bay 14 & Ubc, Vancouver, BC",Ubc Bay 14,Ubc,Vancouver,49.2671797,-123.2486487,"UBC Exchange Bay 3, UBC Bus Exchange, Wesbrook Mall, UBC, BC V6T 2B9, Canada"
"Ubc Bay 14 & Ubc Bay 14, Vancouver, BC",Ubc Bay 14,Ubc Bay 14,Vancouver,49.2671797,-123.2486487,"UBC Exchange Bay 3, UBC Bus Exchange, Wesbrook Mall, UBC, BC V6T 2B9, Canada"
"Cambie & Smithe, Vancouver, BC",Cambie,Smithe,Vancouver,49.2734107,-123.1146941,"Cambie St & Smithe St, Vancouver, BC V6Z, Canada"
"Broadway & Commercial Dr, Vancouver, BC",Broadway,Commercial Dr,Vancouver,49.2623855,-123.0697676,"Commercial Dr & E Broadway, Vancouver, BC V5N 1W2, Canada"
"80 Ave & Scott Rd, Surrey, BC",80 Ave,Scott Rd,Surrey,49.1485479,-122.8904601,"80 Ave & Scott Rd, Delta, BC V4C 1Y2, Canada"
"Norland & Canada Way, Burnaby, BC",Norland,Canada Way,Burnaby,49.2456133,-122.9746336,"Canada Way & Norland Ave, Burnaby, BC V5G 4V1, Canada"
"Kensington & Kensington By Pass, Burnaby, BC",Kensington,Kensington By Pass,Burnaby,49.2802174,-122.9693574,"Eastbound Hastings St @ Kensington Ave, Burnaby, BC V5B 4B3, Canada"
"Commercial & Broadway, Vancouver, BC",Commercial,Broadway,Vancouver,49.2623855,-123.0697676,"Commercial Dr & E Broadway, Vancouver, BC V5N 1W2, Canada"
"Unloading Bay & 22 Station, New Westminster, BC",Unloading Bay,22 Station,New Westminster,49.1999652,-122.949048,"22nd Street, 649 22nd St, New Westminster, BC V3M, Canada"
"10 Hwy Langley Bypass & Fraser Hwy, Langley, BC",10 Hwy Langley Bypass,Fraser Hwy,Langley,49.1010481,-122.6433105,"Fraser Hwy & Langley Bypass, Langley City, BC V3A, Canada"
"Granville & 3 Rd, Richmond, BC",Granville,3 Rd,Richmond,49.1626698,-123.1365042,"Granville Ave & Number 3 Rd, Richmond, BC V6Y 1P4, Canada"
"Pacific  & Abbott, Vancouver, BC",Pacific ,Abbott,Vancouver,49.2816164,-123.1072246,"418 Abbott St, Vancouver, BC V6B 1G8, Canada"
"Crown & 41 Ave, Vancouver, BC",Crown,41 Ave,Vancouver,49.234774,-123.193727,"W 41st Ave & Crown St, Vancouver, BC V6N 3G2, Canada"
"Crown & 41 Ave, Vancouver, BC",Crown,41 Ave,Vancouver,49.234774,-123.193727,"W 41st Ave & Crown St, Vancouver, BC V6N 3G2, Canada"
"152 St & 16 Ave, White Rock, BC",152 St,16 Ave,White Rock,49.0311693,-122.8011601,"16 Ave & 152 St, Surrey, BC V4A, Canada"
"Broadway & Cambie, Vancouver, BC",Broadway,Cambie,Vancouver,49.2632793,-123.1149908,"Cambie St & W Broadway, Vancouver, BC V5Z 4M5, Canada"
"Dunbar & 41 Ave, Vancouver, BC",Dunbar,41 Ave,Vancouver,49.2347729,-123.1852952,"Dunbar St & W 41st Ave, Vancouver, BC V6N 3E7, Canada"
"2 & Main, Vancouver, BC",2,Main,Vancouver,49.244291,-123.1011264,"2-4508 Main St, Vancouver, BC V5V 3R5, Canada"
"Broughton & Georgia, Vancouver, BC",Broughton,Georgia,Vancouver,49.2890422,-123.1282417,"W Georgia St & Broughton St, Vancouver, BC V6G 3C8, Canada"
"Richards & Hastings, Vancouver, BC",Richards,Hastings,Vancouver,49.283796,-123.1124201,"Southbound Richards St @ W Hastings St, Richards St Hastings St, Vancouver, BC V6B 1L6, Canada"
"Richards & Hastings, Vancouver, BC",Richards,Hastings,Vancouver,49.283796,-123.1124201,"Southbound Richards St @ W Hastings St, Richards St Hastings St, Vancouver, BC V6B 1L6, Canada"
"Taylor & Marine, West Vancouver, BC",Taylor,Marine,West Vancouver,49.3270969,-123.1349385,"Marine Dr & Taylor Way, West Vancouver, BC V7T 2W5, Canada"
"Burrard & 16 Ave, Vancouver, BC",Burrard,16 Ave,Vancouver,49.2571739,-123.1460015,"Burrard St & W 16th Ave, Vancouver, BC V6J 2M2, Canada"
"Nan & Coquitlam Station, Coquitlam, BC",Nan,Coquitlam Station,Coquitlam,49.2739076,-122.800077,"Coquitlam Central, 2900 Barnet Hwy, Coquitlam, BC V3B 0G1, Canada"
"Greenwood Pl & 7561 Lougheed Hwy, Burnaby, BC",Greenwood Pl,7561 Lougheed Hwy,Burnaby,49.2555277,-122.9435149,"7561 Lougheed Hwy, Burnaby, BC V5A 1W8, Canada"
"Surrey Central Station & Surrey Central Station, Surrey, BC",Surrey Central Station,Surrey Central Station,Surrey,49.1896129,-122.8479484,"Surrey Central Station, 14479 106 Ave, Surrey, BC V3R 1S9, Canada"
"Richards & Robson, Vancouver, BC",Richards,Robson,Vancouver,49.2800903,-123.117857,"Robson St & Richards St, Vancouver, BC V6B 2B5, Canada"
"Alberta & 49 Ave, Vancouver, BC",Alberta,49 Ave,Vancouver,49.2260008,-123.1129455,"W 49th Ave & Alberta St, Vancouver, BC V5Y 2Z8, Canada"
"Helmcken & Burrard, Vancouver, BC",Helmcken,Burrard,Vancouver,49.2801491,-123.127601,"Burrard St & Helmcken St, Vancouver, BC V6Z 1Y6, Canada"
"Commercial & Broadway, Vancouver, BC",Commercial,Broadway,Vancouver,49.2623855,-123.0697676,"Commercial Dr & E Broadway, Vancouver, BC V5N 1W2, Canada"
"Templeton & Hastings, Vancouver, BC",Templeton,Hastings,Vancouver,49.2811911,-123.0597717,"Templeton Dr & E Hastings St, Vancouver, BC V5L 1V2, Canada"
"8 St & Carnarvon, New Westminster, BC",8 St,Carnarvon,New Westminster,49.202101,-122.912591,"Carnarvon St & Eighth St, New Westminster, BC V3M 0G3, Canada"
"20 Ave & 152 St, Surrey, BC",20 Ave,152 St,Surrey,49.0383719,-122.801149,"20 Ave & 152 St, Surrey, BC V4A, Canada"
"Ridgeway & 3 St, North Vancouver, BC",Ridgeway,3 St,North Vancouver,49.3085422,-123.0632269,"Ridgeway Ave & E 3rd St, North Vancouver, BC V7L 1G7, Canada"
"7 Ave & Cambie, Vancouver, BC",7 Ave,Cambie,Vancouver,49.264961,-123.1149138,"Cambie St & W 7th Ave, Vancouver, BC V5Z 2T5, Canada"
"Duthie & Hastings, Burnaby, BC",Duthie,Hastings,Burnaby,49.2803255,-122.9533672,"Duthie Ave & Hastings St, Burnaby, BC V5A 2P5, Canada"
"Curtis & Holdom, Burnaby, BC",Curtis,Holdom,Burnaby,49.2755029,-122.98098,"Holdom Ave & Curtis St, Burnaby, BC V5B 3V4, Canada"
"Williams & Clark, Vancouver, BC",Williams,Clark,Vancouver,49.2669519,-123.0774039,"Clark Dr, Vancouver, BC, Canada"
"41 Ave & Fraser, Vancouver, BC",41 Ave,Fraser,Vancouver,49.2329525,-123.0904673,"E 41st Ave & Fraser St, Vancouver, BC V5W 1P4, Canada"
"Kootenay & Hastings, Vancouver, BC",Kootenay,Hastings,Vancouver,49.2811202,-123.0256976,"Kootenay St & E Hastings St, Vancouver, BC V5K 2A9, Canada"
"Richards & Pender, Vancouver, BC",Richards,Pender,Vancouver,49.283396,-123.1128809,"Richards St & W Pender St, Vancouver, BC V6B 3A2, Canada"
" Georgia & Cambie, Vancouver, BC", Georgia,Cambie,Vancouver,49.2793345,-123.1132596,"W Georgia St & Cambie St, Vancouver, BC V6B 4P4, Canada"
"Discovery & 10 Ave, Vancouver, BC",Discovery,10 Ave,Vancouver,49.2637445,-123.203024,"Discovery St & W 10th Ave, Vancouver, BC V6R 4K3, Canada"
"Pender & Main, Vancouver, BC",Pender,Main,Vancouver,49.2803878,-123.0996944,"Main St & E Pender St, Vancouver, BC V6A 2V2, Canada"
"Dunbar Loop & Dunbar Loop, Vancouver, BC",Dunbar Loop,Dunbar Loop,Vancouver,49.234593,-123.1857501,"Dunbar St @ Dunbar Loop, Vancouver, BC V6N, Canada"
"Dunbar Loop & Dunbar Loop, Vancouver, BC",Dunbar Loop,Dunbar Loop,Vancouver,49.234593,-123.1857501,"Dunbar St @ Dunbar Loop, Vancouver, BC V6N, Canada"
"Willingdon & Pender, Burnaby, BC",Willingdon,Pender,Burnaby,49.2800953,-123.0031306,"Pender St & Willingdon Ave, Burnaby, BC V5C 2N1, Canada"
"Keith Rd & 22 St, North Vancouver, BC",Keith Rd,22 St,North Vancouver,49.3299931,-123.1147179,"Keith Rd & 22nd St W, North Vancouver, BC V7P 1Z4, Canada"
"152 St & 104 Av, Surrey, BC",152 St,104 Av,Surrey,49.1915254,-122.8009848,"152 St & 104 Ave, Surrey, BC V3R, Canada"
"Commercial & Hastings, Vancouver, BC",Commercial,Hastings,Vancouver,49.2812892,-123.070446,"Commercial Dr & E Hastings St, Vancouver, BC V5L 3V6, Canada"
"Burnette & Columbia, New Westminster, BC",Burnette,Columbia,New Westminster,49.2041103,-122.9068647,"511 Columbia St, New Westminster, BC V3L 1B2, Canada"
"Granville & 41 Ave, Vancouver, BC",Granville,41 Ave,Vancouver,49.2343405,-123.1396258,"Granville St & W 41st Ave, Vancouver, BC V6M 1X7, Canada"
"Bay 1 & Marine  Station, Vancouver, BC",Bay 1,Marine  Station,Vancouver,49.2091094,-123.1168242,"Marine Drive StnBay 1, Vancouver, BC V5X 0C7, Canada"
"Bay 1 & Marine  Station, Vancouver, BC",Bay 1,Marine  Station,Vancouver,49.2091094,-123.1168242,"Marine Drive StnBay 1, Vancouver, BC V5X 0C7, Canada"
"West Blvd & 41 Ave, Vancouver, BC",West Blvd,41 Ave,Vancouver,49.234625,-123.1555635,"West Blvd & W 41st Ave, Vancouver, BC V6M 1Z6, Canada"
"Hornby & Georgia, Vancouver, BC",Hornby,Georgia,Vancouver,49.2837736,-123.1201004,"W Georgia St & Hornby St, Vancouver, BC V6Z 1T7, Canada"
"6 & Clark, Vancouver, BC",6,Clark,Vancouver,49.2669519,-123.0774039,"Clark Dr, Vancouver, BC, Canada"
"18 Ave & Cambie, Vancouver, BC",18 Ave,Cambie,Vancouver,49.2548733,-123.1151876,"Cambie St & W 18th Ave, Vancouver, BC V5Z 3B7, Canada"
"Cambie & Hastings, Vancouver, BC",Cambie,Hastings,Vancouver,49.2825406,-123.1095738,"Cambie St & W Hastings St, Vancouver, BC V6B 2N4, Canada"
"Main & Pender, Vancouver, BC",Main,Pender,Vancouver,49.2803878,-123.0996944,"Main St & E Pender St, Vancouver, BC V6A 2V2, Canada"
"13 St & 6 Ave, New Westminster, BC",13 St,6 Ave,New Westminster,49.2068044,-122.9320954,"6th Ave & 13th St, New Westminster, BC V3M 4L9, Canada"
"Stewardson Way & 20 St, New Westminster, BC",Stewardson Way,20 St,New Westminster,49.20325,-122.9492416,"816 20th St, New Westminster, BC V3M 4W6, Canada"
"Salsbury & Hastings, Vancouver, BC",Salsbury,Hastings,Vancouver,49.2811561,-123.0682695,"Salsbury Dr & E Hastings St, Vancouver, BC V5L 3Z4, Canada"
"203 St & 64 Ave, Langley, BC",203 St,64 Ave,Langley,49.1188949,-122.6600543,"203 St & 64 Ave, Langley Twp, BC V2Y, Canada"
"Skeena & Hastings, Burnaby, BC",Skeena,Hastings,Burnaby,49.2811182,-123.0283059,"E Hastings St & Skeena St, Vancouver, BC V5K 2A7, Canada"
"68 Ave & Granville, Vancouver, BC",68 Ave,Granville,Vancouver,49.2105113,-123.1404567,"Granville St & W 68th Ave, Vancouver, BC V6P 4Z7, Canada"
"148 St & 88 Ave, Surrey, BC",148 St,88 Ave,Surrey,49.1628934,-122.8124923,"88 Ave & 148 St, Surrey, BC V3S 2S2, Canada"
"96 Ave & 132 St, Surrey, BC",96 Ave,132 St,Surrey,49.1771471,-122.8568228,"96 Ave & 132 St, Surrey, BC V3T 3S4, Canada"
"Nvt Yard & Nvt Yard, North Vancouver, BC",Nvt Yard,Nvt Yard,North Vancouver,49.3199816,-123.0724139,"North Vancouver, BC, Canada"
"Fraser & Se Marine, Vancouver, BC",Fraser,Se Marine,Vancouver,49.2109551,-123.0911787,"SE Marine Dr & Fraser St, Vancouver, BC V5X 2T4, Canada"
"Fraser & Se Marine, Vancouver, BC",Fraser,Se Marine,Vancouver,49.2109551,-123.0911787,"SE Marine Dr & Fraser St, Vancouver, BC V5X 2T4, Canada"
"Nanton & Granville, Vancouver, BC",Nanton,Granville,Vancouver,49.2474197,-123.1391558,"Granville St & Nanton Ave, Vancouver, BC V6H 2E1, Canada"
"Before Taylor Way & Marine, North Vancouver, BC",Before Taylor Way,Marine,North Vancouver,49.3270969,-123.1349385,"Marine Dr & Taylor Way, West Vancouver, BC V7T 2W5, Canada"
"Pacific Ave Onramp & Granville Bridge, Vancouver, BC",Pacific Ave Onramp,Granville Bridge,Vancouver,49.2726148,-123.1331489,"Granville Bridge, Granville Bridge, Vancouver, BC V5Y 1V4, Canada"
"41 Ave & Granville, Vancouver, BC",41 Ave,Granville,Vancouver,49.2343405,-123.1396258,"Granville St & W 41st Ave, Vancouver, BC V6M 1X7, Canada"
"Civic Center Access & Dewdney Trunk Rd, Maple Ridge, BC",Civic Center Access,Dewdney Trunk Rd,Maple Ridge,49.2199139,-122.5996999,"22470 Dewdney Trunk Rd #175, Maple Ridge, BC V2X 5Z6, Canada"
"Granville & Broadway, Vancouver, BC",Granville,Broadway,Vancouver,49.2635611,-123.1385968,"Granville St & W Broadway, Vancouver, BC V6H 3G7, Canada"
"Langley Centre & Bay 4, Langley, BC",Langley Centre,Bay 4,Langley,49.106346,-122.654492,"Langley Centre @ Bay 4, Langley City, BC V3A 4L9, Canada"
"Langley Centre & Bay 4, Langley, BC",Langley Centre,Bay 4,Langley,49.106346,-122.654492,"Langley Centre @ Bay 4, Langley City, BC V3A 4L9, Canada"
"Highbury & W 10 Av, Vancouver, BC",Highbury,W 10 Av,Vancouver,49.2635216,-123.1878231,"Highbury St & W 10th Ave, Vancouver, BC V6R 2G7, Canada"
"Marine & Garden, North Vancouver, BC",Marine,Garden,North Vancouver,49.3221225,-123.0971961,"Marine Dr, North Vancouver, BC, Canada"
"South Surrey Park & Ride & King George Blvd, Surrey, BC",South Surrey Park & Ride,King George Blvd,Surrey,49.0721037,-122.8218102,"King George Blvd, Surrey, BC V3T 5H9, Canada"
"Granville & 3 Rd, Richmond, BC",Granville,3 Rd,Richmond,49.1626698,-123.1365042,"Granville Ave & Number 3 Rd, Richmond, BC V6Y 1P4, Canada"
"Garden City & Westminster, Richmond, BC",Garden City,Westminster,Richmond,49.170068,-123.1247148,"Westminster Hwy & Garden City Rd, Richmond, BC V6X 1A8, Canada"
"Davie & Howe, Vancouver, BC",Davie,Howe,Vancouver,49.277807,-123.1272001,"Davie St & Howe St, Vancouver, BC V6Z 0A8, Canada"
"Granville & Pender, Vancouver, BC",Granville,Pender,Vancouver,49.2846675,-123.114861,"Granville St & W Pender St, Vancouver, BC V6C 1X6, Canada"
"Oben & Vanness, Vancouver, BC",Oben,Vanness,Vancouver,49.2356345,-123.0262128,"Oben St & Vanness Ave, Vancouver, BC V5R 6H6, Canada"
"Dunsmuir & Howe, Vancouver, BC",Dunsmuir,Howe,Vancouver,49.2842678,-123.1174393,"Howe St & Dunsmuir St, Vancouver, BC V6C 2T6, Canada"
"North End Of Underpass & Shaughnessy, Port Coquitlam, BC",North End Of Underpass,Shaughnessy,Port Coquitlam,49.257893,-122.7826719,"Shaughnessy St, Port Coquitlam, BC, Canada"
"Robson & Howe, Vancouver, BC",Robson,Howe,Vancouver,49.2820134,-123.1208172,"Robson St & Howe St, Vancouver, BC V7Y 1K8, Canada"
"Parkway Blvd & Panorama Dr, Coquitlam, BC",Parkway Blvd,Panorama Dr,Coquitlam,49.2975331,-122.8093701,"Panorama Dr & Parkway Blvd, Coquitlam, BC V3E 2V7, Canada"
"41 & Granville, Vancouver, BC",41,Granville,Vancouver,49.2684472,-123.1382456,"41 Granville St, Vancouver, BC V6H, Canada"
"71 Av & Hudson, Vancouver, BC",71 Av,Hudson,Vancouver,49.2069789,-123.134663,"W 71st Ave & Hudson St, Vancouver, BC V6P 4M5, Canada"
"Woodland & Broadway, Vancouver, BC",Woodland,Broadway,Vancouver,49.262447,-123.0740669,"Westbound E Broadway @ Woodland Dr, Vancouver, BC V5N 1V8, Canada"
"Selkirk & 41 Ave, Vancouver, BC",Selkirk,41 Ave,Vancouver,49.2341534,-123.1333359,"W 41st Ave & Selkirk St, Vancouver, BC V6M 1X2, Canada"
"190 St & 96 Ave, Surrey, BC",190 St,96 Ave,Surrey,49.1770123,-122.6960806,"96 Ave & 190 St, Surrey, BC V4N 3P2, Canada"
"Nan & Coquitlam Bus Loop, Coquitlam, BC",Nan,Coquitlam Bus Loop,Coquitlam,49.2614802,-122.7740672,"Port Coquitlam, 2125 Kingsway Ave, Port Coquitlam, BC V3C 1T2, Canada"
"Mckenzie & Columbia, New Westminster, BC",Mckenzie,Columbia,New Westminster,49.2026685,-122.9088507,"Columbia St & McKenzie St, New Westminster, BC V3M 1A8, Canada"
"Brentwood Mall Bus Station & Willingdon, Burnaby, BC",Brentwood Mall Bus Station,Willingdon,Burnaby,49.266396,-123.001829,"Brentwood Town Centre Station, Burnaby, BC V5C, Canada"
"136A St & 104 Ave, Surrey, BC",136A St,104 Ave,Surrey,49.191547,-122.8433432,"136a St & 104 Ave, Surrey, BC V3T, Canada"
"184 & Fraser, Vancouver, BC",184,Fraser,Vancouver,49.2365522,-123.090436,"Fraser St, Vancouver, BC, Canada"
"Cambie & Broadway, Vancouver, BC",Cambie,Broadway,Vancouver,49.2632793,-123.1149908,"Cambie St & W Broadway, Vancouver, BC V5Z 4M5, Canada"
" 207 St & Dewdney Trunk, Maple Ridge, BC", 207 St,Dewdney Trunk,Maple Ridge,49.2205253,-122.6478704,"207 St & Dewdney Trunk Rd, Maple Ridge, BC V2X 3E4, Canada"
"Templeton & Dundas, Vancouver, BC",Templeton,Dundas,Vancouver,49.2848084,-123.0596919,"Dundas St & Templeton Dr, Vancouver, BC V5L 1J9, Canada"
"Willow & Broadway, Vancouver, BC",Willow,Broadway,Vancouver,49.2633312,-123.1218259,"W Broadway & Willow St, Vancouver, BC V5Z 1K1, Canada"
"Newport & Ioco, Port Moody, BC",Newport,Ioco,Port Moody,49.2823298,-122.8279938,"Newport Dr & Ioco Rd, Port Moody, BC V3H 5C3, Canada"
"Cordova & Main, Vancouver, BC",Cordova,Main,Vancouver,49.2822863,-123.0996086,"Main St & E Cordova St, Vancouver, BC V6A 2S7, Canada"
"B/W Main & Gore & Hastings, Vancouver, BC",B/W Main & Gore,Hastings,Vancouver,49.2812985,-123.0974762,"Gore Ave & E Hastings St, Vancouver, BC V6A 2Z4, Canada"
"Arbutus & Broadway, Vancouver, BC",Arbutus,Broadway,Vancouver,49.2637721,-123.1523414,"W Broadway & Arbutus Greenway, Vancouver, BC V6J 1Z4, Canada"
"43 Av & Victoria, Vancouver, BC",43 Av,Victoria,Vancouver,49.2305063,-123.0655929,"E 43rd Ave & Victoria Dr, Vancouver, BC V5P 3P9, Canada"
"Carrall & Pender, Vancouver, BC",Carrall,Pender,Vancouver,49.2804916,-123.1043692,"Carrall St & W Pender St, Vancouver, BC V6A 3V6, Canada"
"New Westminster Station & Carnarvon, New Westminster, BC",New Westminster Station,Carnarvon,New Westminster,49.2011111,-122.9125,"800 Carnarvon St, New Westminster, BC V3M 0G3, Canada"
"New Westminster Station & Carnarvon, New Westminster, BC",New Westminster Station,Carnarvon,New Westminster,49.2011111,-122.9125,"800 Carnarvon St, New Westminster, BC V3M 0G3, Canada"
"Broadway & Arbutus, Vancouver, BC",Broadway,Arbutus,Vancouver,49.263783,-123.1529284,"W Broadway & Arbutus St, Vancouver, BC V6J 3Y2, Canada"
"66 Ave & Granville, Vancouver, BC",66 Ave,Granville,Vancouver,49.211359,-123.1404323,"Granville St & W 66th Ave, Vancouver, BC V6P 4Z4, Canada"
"73A Ave & 116 St, Delta, BC",73A Ave,116 St,Delta,49.1363018,-122.9014808,"116 St & 73a Ave, Delta, BC V4C 6Y6, Canada"
"B/W Broadway & Granville, Vancouver, BC",B/W Broadway,Granville,Vancouver,49.2635611,-123.1385968,"Granville St & W Broadway, Vancouver, BC V6H 3G7, Canada"
"18 Ave & Cambie, Vancouver, BC",18 Ave,Cambie,Vancouver,49.2548733,-123.1151876,"Cambie St & W 18th Ave, Vancouver, BC V5Z 3B7, Canada"
"Salsbury & Hastings, Vancouver, BC",Salsbury,Hastings,Vancouver,49.2811561,-123.0682695,"Salsbury Dr & E Hastings St, Vancouver, BC V5L 3Z4, Canada"
"B/W Kingsway & Joyce, Burnaby, BC",B/W Kingsway,Joyce,Burnaby,49.2342077,-123.0358375,"Joyce St & Kingsway, Vancouver, BC V5R, Canada"
"King George Blvd & 68 Ave, Surrey, BC",King George Blvd,68 Ave,Surrey,49.1261844,-122.8457043,"King George Blvd & 68 Ave, Surrey, BC V3W, Canada"
"Queensborough Landing & Boyd, New Westminster, BC",Queensborough Landing,Boyd,New Westminster,49.1920526,-122.9487717,"805 Boyd St, New Westminster, BC V3M 5G7, Canada"
"B/W Fir & Granville & 16 Av, Vancouver, BC",B/W Fir & Granville,16 Av,Vancouver,49.2570659,-123.1388013,"Granville St & W 16th Ave, Vancouver, BC V6H 1S5, Canada"
"Blanca & 4 Ave, Vancouver, BC",Blanca,4 Ave,Vancouver,49.2691191,-123.2150312,"Blanca St & W 4th Ave, Vancouver, BC V6R 4E6, Canada"
"Kingsway & Edmonds, Burnaby, BC",Kingsway,Edmonds,Burnaby,49.2183682,-122.9516171,"Edmonds St & Kingsway, Burnaby, BC V3N, Canada"
"Burrard & Georgia, Vancouver, BC",Burrard,Georgia,Vancouver,49.284448,-123.1211287,"Burrard St & W Georgia St, Vancouver, BC V6E 3N9, Canada"
"Cumberland & Columbia, Burnaby, BC",Cumberland,Columbia,Burnaby,49.2294974,-122.9151243,"7715 Cumberland St, Burnaby, BC V3N 3Y2, Canada"
"Kingsway & Broadway, Vancouver, BC",Kingsway,Broadway,Vancouver,49.262719,-123.098055,"Eastbound E Broadway @ Kingsway, Vancouver, BC V5T 4G5, Canada"
"Burrard & 4 Av, Vancouver, BC",Burrard,4 Av,Vancouver,49.2680201,-123.1457253,"Burrard St & W 4th Ave, Vancouver, BC V6J 1M4, Canada"
"40 Av & 204 St, Langley, BC",40 Av,204 St,Langley,49.0747006,-122.6585768,"40 Ave & 204 St, Langley Twp, BC V3A 2W8, Canada"
"Stanley & Canada Way, Burnaby, BC",Stanley,Canada Way,Burnaby,49.2328064,-122.9514754,"Canada Way & Stanley St, Burnaby, BC V5E 3P1, Canada"
"Devonshire & Granville, Vancouver, BC",Devonshire,Granville,Vancouver,49.2464957,-123.1391784,"Granville St & Devonshire Crescent, Vancouver, BC V6H 3L6, Canada"
"Denman & Robson, Vancouver, BC",Denman,Robson,Vancouver,49.2914913,-123.1354626,"Robson St & Denman St, Vancouver, BC V6G 2L6, Canada"
"Welwyne & Kingsway, Vancouver, BC",Welwyne,Kingsway,Vancouver,49.2473648,-123.0699411,"Welwyn St & Kingsway, Vancouver, BC V5N 2S3, Canada"
"Nanton & Granville, Vancouver, BC",Nanton,Granville,Vancouver,49.2474197,-123.1391558,"Granville St & Nanton Ave, Vancouver, BC V6H 2E1, Canada"
"Columbia & Hastings, Burnaby, BC",Columbia,Hastings,Burnaby,49.2808151,-123.0048435,"4440 Hastings St, Burnaby, BC V5C 2K2, Canada"
"196 St & Fraser Hwy, Langley, BC",196 St,Fraser Hwy,Langley,49.1139376,-122.6798116,"Fraser Hwy & 196 St, Surrey, BC V3S, Canada"
"Alder & Broadway, Vancouver, BC",Alder,Broadway,Vancouver,49.2634871,-123.1313812,"W Broadway & Alder St, Vancouver, BC V6H 1G7, Canada"
"Nan & Ubc Loop, Vancouver, BC",Nan,Ubc Loop,Vancouver,49.3280242,-123.1556756,"1454 Marine Dr, West Vancouver, BC V7T 1B7, Canada"
"Nan & Ubc Loop, Vancouver, BC",Nan,Ubc Loop,Vancouver,49.3280242,-123.1556756,"1454 Marine Dr, West Vancouver, BC V7T 1B7, Canada"
"72 Ave & 137 St, Surrey, BC",72 Ave,137 St,Surrey,49.1335284,-122.8427847,"72 Ave & 137 St, Surrey, BC V3W, Canada"
"Sw Marine & Granville, Vancouver, BC",Sw Marine,Granville,Vancouver,49.2052762,-123.1405762,"Granville St & SW Marine Dr, Vancouver, BC V6P 5A4, Canada"
"27 & Oak, Vancouver, BC",27,Oak,Vancouver,49.232599,-123.1280661,"Oak St, Vancouver, BC, Canada"
"Willingdon & Pender, Burnaby, BC",Willingdon,Pender,Burnaby,49.2800953,-123.0031306,"Pender St & Willingdon Ave, Burnaby, BC V5C 2N1, Canada"
"Balfour & Granville, Vancouver, BC",Balfour,Granville,Vancouver,49.2519175,-123.138994,"Granville St & Balfour Ave, Vancouver, BC V6H 1X9, Canada"
"Oak & Marine, Vancouver, BC",Oak,Marine,Vancouver,49.2046442,-123.1304313,"SW Marine Dr & Oak St, Vancouver, BC V6P, Canada"
"13 Ave & Granville, Vancouver, BC",13 Ave,Granville,Vancouver,49.259837,-123.1387014,"Granville St & W 13th Ave, Vancouver, BC V6H 1P1, Canada"
"Burke & Boundry, Burnaby, BC",Burke,Boundry,Burnaby,49.2369985,-123.0234325,"Burke St & Boundary Rd, Vancouver, BC V5R, Canada"
"Boundary & Ewen , New Westminster, BC",Boundary,Ewen ,New Westminster,49.1818567,-122.9573359,"Ewen Ave & Boundary Rd, Richmond, BC V6V 2E5, Canada"
"Yukon & Broadway, Vancouver, BC",Yukon,Broadway,Vancouver,49.2632483,-123.112932,"W Broadway & Yukon St, Vancouver, BC V5Y 4A8, Canada"
"Commercial & Broadway, Vancouver, BC",Commercial,Broadway,Vancouver,49.2623855,-123.0697676,"Commercial Dr & E Broadway, Vancouver, BC V5N 1W2, Canada"
"Nelson & Granville, Vancouver, BC",Nelson,Granville,Vancouver,49.2792748,-123.12302,"Granville St & Nelson St, Vancouver, BC V6Z 2A8, Canada"
"Ridgeway & 3Rd, North Vancouver, BC",Ridgeway,3Rd,North Vancouver,49.3085422,-123.0632269,"Ridgeway Ave & E 3rd St, North Vancouver, BC V7L 1G7, Canada"
"Nan & Scott Rd Station, Surrey, BC",Nan,Scott Rd Station,Surrey,49.2044407,-122.8741392,"Scott Road Station, Surrey, BC V3V, Canada"
"Oxford & Thrift, White Rock, BC",Oxford,Thrift,White Rock,49.0276252,-122.8121928,"Thrift Ave & Oxford St, White Rock, BC V4B 5A1, Canada"
"38 Ave & Granville, Vancouver, BC",38 Ave,Granville,Vancouver,49.2371204,-123.1394857,"Granville St & W 38th Ave, Vancouver, BC V6M 3C1, Canada"
"Clark & 6 Ave, Vancouver, BC",Clark,6 Ave,Vancouver,49.2651661,-123.0774846,"E 6th Ave & Clark Dr, Vancouver, BC V5T 1E6, Canada"
"14 Ave & Granville, Vancouver, BC",14 Ave,Granville,Vancouver,49.2589157,-123.1387331,"Granville St & W 14th Ave, Vancouver, BC V6H 3J9, Canada"
"Georgia & Burrard, Vancouver, BC",Georgia,Burrard,Vancouver,49.284448,-123.1211287,"Burrard St & W Georgia St, Vancouver, BC V6E 3N9, Canada"
"Clark & Hastings, Vancouver, BC",Clark,Hastings,Vancouver,49.2812824,-123.0770508,"E Hastings St & Clark Dr, Vancouver, BC V5L 1S3, Canada"
"Rtc Depot & Track 35, Richmond, BC",Rtc Depot,Track 35,Richmond,49.1317346,-123.1013064,"11133 Coppersmith Way, Richmond, BC V7A 5E8, Canada"
"16 Ave & Oak, Vancouver, BC",16 Ave,Oak,Vancouver,49.2570806,-123.127241,"W 16th Ave & Oak St, Vancouver, BC V6H 2L4, Canada"
"33 Ave & Granville, Vancouver, BC",33 Ave,Granville,Vancouver,49.2418674,-123.1393324,"Granville St & W 33rd Ave, Vancouver, BC V6H 3M2, Canada"
"Hawthorne & Mary Hill , Port Coquitlam, BC",Hawthorne,Mary Hill ,Port Coquitlam,49.2570161,-122.7785336,"Hawthorne Ave & Mary Hill Rd, Port Coquitlam, BC V3C 1W2, Canada"
"Richards & Hastings, Vancouver, BC",Richards,Hastings,Vancouver,49.283796,-123.1124201,"Southbound Richards St @ W Hastings St, Richards St Hastings St, Vancouver, BC V6B 1L6, Canada"
"Seymour & Pender, Vancouver, BC",Seymour,Pender,Vancouver,49.284021,-123.1138578,"W Pender St & Seymour St, Vancouver, BC V6B 1V3, Canada"
